~Version Information
 VERS.                  2.0:   CWLS log ASCII Standard -VERSION 2.0
 WRAP.                   NO:   One line per depth step
~Well Information Block
#MNEM.UNIT     VALUE/NAME     DESCRIPTION
#---------     -----------    ---------------------------
 STRT.F              6550.0000: START DEPTH
 STOP.F             12465.0000: STOP DEPTH
 STEP.F                 0.2500: STEP DEPTH
 NULL.                 -999.25: NULL VALUE
 DMF .                      KB:  DRILL MEAS FROM
 PDAT.                      GL:  PERMANENT DATUM
 DATE.             25-Dec-2019:  DATE
 SVCO.             Halliburton:  SERVICECONAME
 HIDE.                        :  WELLNAMEOPERAT
 BASI.                   BACIA:  BASIN
 UWI .                     N/A:  UNIQUE WELL IDENTIFIER
 API .                     N/A:  API NUMBER
 RANG.                     N/A:  RANGE
 TOWN.                     N/A:  TOWNSHIP
 SECT.                     N/A:  SECTION
 SON .                     N/A:  JOB NUMBER
 CNTY.                        :  COUNTY
 COMP.                        :  COMPANY
 CTRY.                        :  COUNTRY
 FLD .                   Oredo:  FIELD
 PROV.                        :  PROVINCE
 SRVC.             Halliburton:  SERVICE COMPANY
 STAT.                        :  STATE
 WELL.                Oredo 16:  WELL
 LOC .                        :  LOCATION
 LMF .                      KB:  LOG MEASURED FROM
 BAP .ft                0.0000:  GL ELEV ONSHORE
 GVFD.g                 1.0000:  GRAVITY FIELD
~Parameter Information Block
#MNEM.UNIT       Value        Description
#---------     -----------    ---------------------------
 BARI.                     OFF:  BARITE CORR 
 DCS .               25-Dec-19:  DateCircEndT 
 ENGI.          OLUCHI OHANEHI:  Engineer Name 
 IQVR.     WL INSITE R6.2.1 (Build 2):  WLIQ Version 
 LTYP.                     RAW:  LogDataType 
 RUN .                       3:  Run Number 
 SCT1.               26-Dec-19:  StartDateRun1 
 SVCN.     QUAD COMBO TOOLSTRING:  Service Name 
 SVCS.     RWCH, GTET, DSNT, SDLT, WSTT-I Receivers, ACRt Sonde:  Services 
 TCS .                   17 14:  Time Ciculation Ended 
 TDCE.ucts  17.14.51 25-Dec-19:  Time Circ End 
~Curve Information Block
#MNEM.UNIT                 API CODE     Curve Description
#---------               -----------    ---------------------------
 DEPT.ft                00 000 000 000:  Depth
 TENS.lbs               00 000 000 000:  Tension
 BHVT.ft3               00 000 000 000:  Borehole Volume
 AHVT.ft3               00 000 000 000:  Annular Volume
 DHTN.lbs               00 000 000 000:  CH Tension
 BITSIZE.in             00 000 000 000:  Bit Size
 GR  .api               00 000 000 000:  Gamma API
 CALI.in                00 000 000 000:  Caliper
 MMK .                  00 000 000 000:  Minute Mark
 RT10.ohmm              00 000 000 000:  10in Resistivity 2ft Res
 RT20.ohmm              00 000 000 000:  20in Resistivity 2ft Res
 RT30.ohmm              00 000 000 000:  30in Resistivity 2ft Res
 RT60.ohmm              00 000 000 000:  60in Resistivity 2ft Res
 RT90.ohmm              00 000 000 000:  90in Resistivity 2ft Res
 DRHO.g/cc              00 000 000 000:  DensityCorr
 PE  .                  00 000 000 000:  Pe
 RHOB.g/cc              00 000 000 000:  Density
 MDT .uspf              00 000 000 000:  MonoDeltaT
 NPHI.pu                00 000 000 000:  Neutron Porosity
 DXDT.uspf              00 000 000 000:  DipXDeltaT
 DYDT.uspf              00 000 000 000:  DipYDeltaT
#Other Information
#
#WARRANTY: Halliburton will use its best efforts to furnish customers with 
#accurate information and interpretations that are part of, and incident to, the services 
#provided.  However, Halliburton cannot and does not warrant the accuracy 
#or correctness of such information and interpretations.  Under no circumstances should any 
#such information or interpretation be relied upon as the sole basis for any drilling, 
#completion, production, or financial decision or any procedure involving any risk to the 
#safety of any drilling venture, drilling rig or its crew or any other third party.  The 
#Customer has full responsibility for all drilling, completion and production operation.  
#Halliburton makes no representations or warranties, either expressed or 
#implied, including, but not limited to, the implied warranties of merchantability or fitness 
#for a particular purpose, with respect to the services rendered.  In no event will 
#Halliburton be liable for failure to obtain any particular results or for 
#any damages, including, but not limited to, indirect, special or consequential damages, 
#resulting from the use of any information or interpretation provided by Halliburton.
#
~A    DEPT      TENS      BHVT      AHVT      DHTN    BITSIZE    GR     CALI    MMK     RT10      RT20      RT30      RT60      RT90     DRHO     PE     RHOB     MDT     NPHI     DXDT     DYDT   
# ...
    8114.5000 5026.3789 3582.0244 1388.0355 1988.6709 12.2500  22.8757 12.1587 0.0000   16.9651   25.3486   35.4493   44.3712   43.5874  0.0457  1.5362  2.2233  85.5362 28.7917 162.2868 165.0941
    8114.7500 5026.8833 3581.8228 1387.9602 1989.6511 12.2500  23.3662 12.1588 0.0000   16.4258   24.5676   34.4525   43.1439   42.3820  0.0490  1.5781  2.2271  85.5362 28.2662 162.2868 165.0941
    8115.0000 5028.1377 3581.6211 1387.8849 1989.6511 12.2500  23.0130 12.1577 0.0000   15.2969   22.8253   32.0765   40.1755   39.4601  0.0520  1.6003  2.2267  85.4852 29.1990 161.8887 165.1848
    8115.2500 5029.4404 3581.4194 1387.8097 1988.6111 12.2500  22.0164 12.1606 0.0000   13.9011   20.6454   29.0546   36.3825   35.7248  0.0540  1.5968  2.2247  85.4852 28.1344 161.8887 165.1848
    8115.5000 5029.6299 3581.2178 1387.7344 1988.6111 12.2500  21.0708 12.1636 0.0000   12.5986   18.6109   26.2134   32.8019   32.1972  0.0556  1.5615  2.2235  85.2219 28.6245 161.2860 165.1864
    8115.7500 5028.3120 3581.0161 1387.6589 1988.8109 12.2500  20.9256 12.1665 0.0000   11.6061   17.0699   24.0517   30.0609   29.4946  0.0559  1.5194  2.2221  85.2219 27.9395 161.2860 165.1864
    8116.0000 5026.4653 3580.8142 1387.5834 1988.8109 12.2500  21.7535 12.1669 0.0000   10.9795   16.1119   22.7007   28.3252   27.7796  0.0566  1.4719  2.2235  85.0949 28.5202 160.9742 164.7594
    8116.2500 5024.9731 3580.6123 1387.5078 1989.8512 12.2500  23.3858 12.1647 0.0000   10.6686   15.6591   22.0526   27.4596   26.9190  0.0575  1.4422  2.2262  85.0949 27.6991 160.9742 164.7594
    8116.5000 5024.1763 3580.4106 1387.4324 1989.8512 12.2500  24.3314 12.1634 0.0000   10.5708   15.5520   21.8820   27.1823   26.6361  0.0583  1.4354  2.2294  85.1687 29.1674 160.6186 163.3070
    8116.7500 5024.1533 3580.2090 1387.3569 1989.4713 12.2500  25.4615 12.1615 0.0000   10.5752   15.6161   21.9423   27.1862   26.6294  0.0588  1.4353  2.2288  85.2784 28.3067 159.8440 161.3177
    8117.0000 5024.5957 3580.0073 1387.2816 1989.4713 12.2500  26.4071 12.1635 0.0000   10.5934   15.7080   22.0317   27.2227   26.6551  0.0583  1.4519  2.2295  85.2784 28.9725 159.8440 161.3177
    8117.2500 5025.3926 3579.8057 1387.2062 1988.9709 12.2500  26.9721 12.1611 0.0000   10.5786   15.7476   22.0386   27.1563   26.5810  0.0569  1.4604  2.2312  85.3979 28.3234 159.5095 160.6114
    8117.5000 5026.7183 3579.6040 1387.1309 1989.1511 12.2500  28.3102 12.1636 0.0000   10.5410   15.7455   21.9809   27.0115   26.4313  0.0548  1.4569  2.2319  85.3979 30.3323 159.5095 160.6114
    8117.7500 5028.8560 3579.4023 1387.0554 1989.1511 12.2500  28.4828 12.1634 1.0000   10.5459   15.8026   22.0026   26.9669   26.3810  0.0538  1.4505  2.2385  85.7612 29.9082 160.4037 161.4220
    8118.0000 5030.5381 3579.2007 1386.9800 1990.5114 12.2500  29.2126 12.1636 0.0000   10.6863   16.0654   22.3104   27.2758   26.6784  0.0530  1.4421  2.2444  85.7612 28.9127 160.4037 161.4220
    8118.2500 5031.3501 3578.9990 1386.9045 1990.5114 12.2500  29.7777 12.1598 0.0000   11.0443   16.6668   23.0896   28.1621   27.5423  0.0530  1.4444  2.2489  86.5396 28.6838 161.5622 162.8465
    8118.5000 5031.5244 3578.7974 1386.8292 1991.9310 12.2500  30.6095 12.1614 0.0000   11.6580   17.6723   24.4306   29.7328   29.0777  0.0529  1.4658  2.2509  86.5396 28.6932 161.5622 162.8465
    8118.7500 5029.9229 3578.5957 1386.7539 1991.9310 12.2500  31.5591 12.1587 0.0000   12.4923   19.0333   26.2653   31.9023   31.2009  0.0522  1.4896  2.2503  87.9428 30.0730 161.5528 163.6371
    8119.0000 5028.8486 3578.3940 1386.6786 1993.1907 12.2500  31.7396 12.1571 0.0000   13.4260   20.5639   28.3377   34.3591   33.6076  0.0511  1.5089  2.2442  87.9428 29.6226 161.5528 163.6371
    8119.2500 5028.0918 3578.1926 1386.6034 1993.1907 12.2500  31.3707 12.1574 0.0000   14.2829   21.9861   30.2659   36.6419   35.8461  0.0495  1.5176  2.2378  89.8445 30.1156 160.9353 163.9757
    8119.5000 5026.0000 3577.9912 1386.5282 1994.2703 12.2500  30.0170 12.1546 0.0000   14.9034   23.0420   31.6971   38.3276   37.5018  0.0483  1.5050  2.2329  89.8445 29.1025 160.9353 163.9757
    8119.7500 5025.1396 3577.7898 1386.4531 1994.2703 12.2500  28.6437 12.1593 0.0000   15.2210   23.6183   32.4781   39.2343   38.3960  0.0466  1.4834  2.2247  91.1535 30.6704 161.3905 164.2336
    8120.0000 5024.9658 3577.7898 1386.4531 1993.8707 12.2500  28.6437 12.1593 0.0000   15.2210   23.6183   32.4781   39.2343   38.3960  0.0466  1.4834  2.2247  91.1535 30.6704 161.3905 164.2336
    8120.2500 5024.2012 3577.5881 1386.3778 1992.1709 12.2500  27.1369 12.1601 0.0000   15.2832   23.7843   32.7055   39.4809   38.6441  0.0450  1.4582  2.2224  91.1535 30.4600 161.3905 164.2336
    8120.5000 5023.3643 3577.3865 1386.3025 1992.1709 12.2500  26.2816 12.1588 0.0000   15.1990   23.7090   32.6115   39.3472   38.5194  0.0432  1.4353  2.2180  91.2752 31.3824 162.8752 164.4969
    8120.7500 5023.0479 3577.1848 1386.2272 1991.9711 12.2500  26.0226 12.1609 0.0000   15.0557   23.5280   32.3805   39.0542   38.2378  0.0412  1.4322  2.2127  91.2752 29.0813 162.8752 164.4969
    8121.0000 5023.1035 3576.9832 1386.1519 1991.9711 12.2500  26.2541 12.1683 0.0000   14.8705   23.2651   32.0425   38.6368   37.8331  0.0400  1.4443  2.2111  90.6958 29.2520 163.9011 164.7712
    8121.2500 5024.2871 3576.7813 1386.0763 1990.4109 12.2500  26.4856 12.1719 0.0000   14.6051   22.8568   31.5063   37.9834   37.1953  0.0391  1.4687  2.2064  90.6958 29.9020 163.9011 164.7712
    8121.5000 5025.0210 3576.5793 1386.0006 1990.4109 12.2500  26.9329 12.1760 0.0000   14.2290   22.2550   30.7024   37.0093   36.2413  0.0391  1.4991  2.2031  90.0862 30.4044 164.3592 165.3773
    8121.7500 5024.9731 3576.3772 1385.9248 1991.1311 12.2500  27.6549 12.1773 0.0000   13.7700   21.5086   29.6965   35.7923   35.0473  0.0398  1.5146  2.2023  90.0862 30.8076 164.3592 165.3773
    8122.0000 5024.1299 3576.1750 1385.8489 1991.1311 12.2500  27.7961 12.1740 0.0000   13.3064   20.7501   28.6702   34.5503   33.8272  0.0403  1.5235  2.1989  90.0862 29.5528 164.3592 165.3773
    8122.2500 5023.0806 3575.9729 1385.7731 1992.6908 12.2500  28.4632 12.1751 0.0000   12.9248   20.1253   27.8249   33.5245   32.8178  0.0406  1.5238  2.1979  89.8360 29.9049 164.6662 166.4637
    8122.5000 5022.2910 3575.7708 1385.6973 1992.6908 12.2500  28.2395 12.1707 0.0000   12.6799   19.7270   27.2893   32.8696   32.1706  0.0407  1.5189  2.1992  89.8360 29.7310 164.6662 166.4637
    8122.7500 5020.9180 3575.5688 1385.6216 1993.5505 12.2500  27.8432 12.1637 0.0000   12.5875   19.5817   27.0996   32.6288   31.9282  0.0411  1.5197  2.2014  90.1365 29.1848 164.9074 167.3016
    8123.0000 5020.0020 3575.3672 1385.5461 1993.5505 12.2500  28.0473 12.1618 0.0000   12.6284   19.6552   27.2074   32.7438   32.0335  0.0419  1.5237  2.2086  90.1365 28.9514 164.9074 167.3016
    8123.2500 5020.4600 3575.1655 1385.4708 1992.9508 12.2500  28.2748 12.1632 0.0000   12.7352   19.8315   27.4503   33.0192   32.2950  0.0434  1.5293  2.2161  90.7136 29.3792 165.0259 167.6507
    8123.5000 5021.3511 3574.9639 1385.3954 1991.9111 12.2500  28.8987 12.1620 0.0000   12.7873   19.9079   27.5462   33.1170   32.3817  0.0456  1.5337  2.2234  90.7136 29.5455 165.0259 167.6507
    8123.7500 5022.8740 3574.7622 1385.3201 1991.9111 12.2500  29.3343 12.1613 0.0000   12.6650   19.6843   27.2174   32.7053   31.9693  0.0471  1.5382  2.2296  91.0320 29.7062 165.4042 167.9277
    8124.0000 5024.9424 3574.5605 1385.2448 1992.2910 12.2500  29.0714 12.1625 0.0000   12.3348   19.1043   26.3874   31.6939   30.9701  0.0488  1.5332  2.2320  91.0320 29.3801 165.4042 167.9277
    8124.2500 5027.8159 3574.3589 1385.1693 1992.2910 12.2500  28.6476 12.1598 0.0000   11.8701   18.2896   25.2279   30.2901   29.5877  0.0502  1.5253  2.2339  91.0967 28.7673 165.8417 168.2182
    8124.5000 5030.9404 3574.1572 1385.0940 1993.4508 12.2500  28.4553 12.1576 0.0000   11.3950   17.4484   24.0313   28.8452   28.1661  0.0516  1.5124  2.2358  91.0967 28.8571 165.8417 168.2182
    8124.7500 5034.2944 3573.9556 1385.0188 1993.4508 12.2500  28.5809 12.1522 0.0000   11.0321   16.7872   23.0855   27.7047   27.0431  0.0534  1.4884  2.2379  91.0967 28.7197 165.8417 168.2182
