~Version Information
 VERS.                  2.0:   CWLS log ASCII Standard -VERSION 2.0
 WRAP.                   NO:   One line per depth step
~Well Information Block
#MNEM.UNIT     VALUE/NAME     DESCRIPTION
#---------     -----------    ---------------------------
 STRT.F              6550.0000: START DEPTH
 STOP.F             12465.0000: STOP DEPTH
 STEP.F                 0.2500: STEP DEPTH
 NULL.                 -999.25: NULL VALUE
 DMF .                      KB:  DRILL MEAS FROM
 PDAT.                      GL:  PERMANENT DATUM
 DATE.             25-Dec-2019:  DATE
 SVCO.             Halliburton:  SERVICECONAME
 HIDE.                        :  WELLNAMEOPERAT
 BASI.                   BACIA:  BASIN
 UWI .                     N/A:  UNIQUE WELL IDENTIFIER
 API .                     N/A:  API NUMBER
 RANG.                     N/A:  RANGE
 TOWN.                     N/A:  TOWNSHIP
 SECT.                     N/A:  SECTION
 SON .                     N/A:  JOB NUMBER
 CNTY.                        :  COUNTY
 COMP.                        :  COMPANY
 CTRY.                        :  COUNTRY
 FLD .                   Oredo:  FIELD
 PROV.                        :  PROVINCE
 SRVC.             Halliburton:  SERVICE COMPANY
 STAT.                        :  STATE
 WELL.                Oredo 16:  WELL
 LOC .                        :  LOCATION
 LMF .                      KB:  LOG MEASURED FROM
 BAP .ft                0.0000:  GL ELEV ONSHORE
 GVFD.g                 1.0000:  GRAVITY FIELD
~Parameter Information Block
#MNEM.UNIT       Value        Description
#---------     -----------    ---------------------------
 BARI.                     OFF:  BARITE CORR 
 DCS .               25-Dec-19:  DateCircEndT 
 ENGI.          OLUCHI OHANEHI:  Engineer Name 
 IQVR.     WL INSITE R6.2.1 (Build 2):  WLIQ Version 
 LTYP.                     RAW:  LogDataType 
 RUN .                       3:  Run Number 
 SCT1.               26-Dec-19:  StartDateRun1 
 SVCN.     QUAD COMBO TOOLSTRING:  Service Name 
 SVCS.     RWCH, GTET, DSNT, SDLT, WSTT-I Receivers, ACRt Sonde:  Services 
 TCS .                   17 14:  Time Ciculation Ended 
 TDCE.ucts  17.14.51 25-Dec-19:  Time Circ End 
~Curve Information Block
#MNEM.UNIT                 API CODE     Curve Description
#---------               -----------    ---------------------------
 DEPT.ft                00 000 000 000:  Depth
 TENS.lbs               00 000 000 000:  Tension
 BHVT.ft3               00 000 000 000:  Borehole Volume
 AHVT.ft3               00 000 000 000:  Annular Volume
 DHTN.lbs               00 000 000 000:  CH Tension
 BITSIZE.in             00 000 000 000:  Bit Size
 GR  .api               00 000 000 000:  Gamma API
 CALI.in                00 000 000 000:  Caliper
 MMK .                  00 000 000 000:  Minute Mark
 RT10.ohmm              00 000 000 000:  10in Resistivity 2ft Res
 RT20.ohmm              00 000 000 000:  20in Resistivity 2ft Res
 RT30.ohmm              00 000 000 000:  30in Resistivity 2ft Res
 RT60.ohmm              00 000 000 000:  60in Resistivity 2ft Res
 RT90.ohmm              00 000 000 000:  90in Resistivity 2ft Res
 DRHO.g/cc              00 000 000 000:  DensityCorr
 PE  .                  00 000 000 000:  Pe
 RHOB.g/cc              00 000 000 000:  Density
 MDT .uspf              00 000 000 000:  MonoDeltaT
 NPHI.pu                00 000 000 000:  Neutron Porosity
 DXDT.uspf              00 000 000 000:  DipXDeltaT
 DYDT.uspf              00 000 000 000:  DipYDeltaT
#Other Information
#
#WARRANTY: Halliburton will use its best efforts to furnish customers with 
#accurate information and interpretations that are part of, and incident to, the services 
#provided.  However, Halliburton cannot and does not warrant the accuracy 
#or correctness of such information and interpretations.  Under no circumstances should any 
#such information or interpretation be relied upon as the sole basis for any drilling, 
#completion, production, or financial decision or any procedure involving any risk to the 
#safety of any drilling venture, drilling rig or its crew or any other third party.  The 
#Customer has full responsibility for all drilling, completion and production operation.  
#Halliburton makes no representations or warranties, either expressed or 
#implied, including, but not limited to, the implied warranties of merchantability or fitness 
#for a particular purpose, with respect to the services rendered.  In no event will 
#Halliburton be liable for failure to obtain any particular results or for 
#any damages, including, but not limited to, indirect, special or consequential damages, 
#resulting from the use of any information or interpretation provided by Halliburton.
#
~A    DEPT      TENS      BHVT      AHVT      DHTN    BITSIZE    GR     CALI    MMK     RT10      RT20      RT30      RT60      RT90     DRHO     PE     RHOB     MDT     NPHI     DXDT     DYDT   
# ...
   10466.5000 5942.1001 1669.4006  661.4335 2102.1182 12.2500  93.8336 12.3936 0.0000    3.4123    3.5936    3.6491    3.6019    3.5714  0.0340  3.0546  2.6506  84.0634 23.9009 163.6822 168.1285
   10466.7500 5939.6846 1669.1912  661.3504 2103.9182 12.2500  91.5891 12.3950 0.0000    3.3818    3.5534    3.6060    3.5603    3.5288  0.0349  2.9862  2.6477  84.0634 25.1605 163.6822 168.1285
   10467.0000 5938.2881 1668.9817  661.2672 2103.9182 12.2500  91.5617 12.4028 0.0000    3.2783    3.4297    3.4759    3.4322    3.4010  0.0351  2.9349  2.6448  84.8902 24.6255 168.2783 168.4959
   10467.2500 5937.1367 1668.7720  661.1838 2102.5581 12.2500  93.6766 12.4055 0.0000    3.1165    3.2411    3.2788    3.2373    3.2074  0.0344  2.8746  2.6303  84.8902 25.4830 168.2783 168.4959
   10467.5000 5936.8438 1668.5621  661.1003 2102.5581 12.2500  96.2585 12.4054 0.0000    2.9379    3.0346    3.0633    3.0241    2.9961  0.0324  2.8430  2.6136  86.0091 27.1700 175.9067 170.7846
   10467.7500 5936.6235 1668.3523  661.0168 2097.9390 12.2500  97.8044 12.4099 0.0000    2.7779    2.8498    2.8703    2.8328    2.8068  0.0302  2.8225  2.5955  86.0091 29.9993 175.9067 170.7846
   10468.0000 5937.1045 1668.1423  660.9331 2097.9390 12.2500  97.1963 12.4122 0.0000    2.6525    2.7048    2.7183    2.6820    2.6577  0.0303  2.8098  2.5795  87.1744 32.2059 181.1165 174.5449
   10468.2500 5938.8647 1667.9323  660.8494 2097.4187 12.2500  95.9603 12.4099 0.0000    2.5655    2.6038    2.6116    2.5756    2.5532  0.0309  2.8220  2.5748  88.4799 33.1010 184.3532 178.7596
   10468.5000 5939.3530 1667.7223  660.7657 2097.4187 12.2500  96.1054 12.4146 0.0000    2.5166    2.5444    2.5476    2.5112    2.4903  0.0314  2.8232  2.5723  88.4799 34.5068 184.3532 178.7596
   10468.7500 5938.2651 1667.5121  660.6819 2096.4790 12.2500  96.7529 12.4160 0.0000    2.5158    2.5182    2.5176    2.4803    2.4600  0.0325  2.8174  2.5787  89.9815 33.2949 187.3857 182.6410
   10469.0000 5937.1367 1667.3019  660.5980 2096.4790 12.2500  97.8084 12.4182 0.0000    2.4880    2.5137    2.5101    2.4709    2.4511  0.0320  2.7740  2.5824  89.9815 32.2382 187.3857 182.6410
   10469.2500 5937.1924 1667.0916  660.5140 2099.0188 12.2500  98.3538 12.4158 0.0000    2.4893    2.5181    2.5118    2.4702    2.4508  0.0316  2.6994  2.5802  91.3473 31.5940 191.4038 186.2537
   10469.5000 5937.7749 1666.8813  660.4302 2099.0188 12.2500  96.6430 12.4163 0.0000    2.4869    2.5177    2.5087    2.4645    2.4458  0.0321  2.6295  2.5790  91.3473 31.4661 191.4038 186.2537
   10469.7500 5937.2632 1666.6711  660.3463 2097.6790 12.2500  93.8375 12.4201 0.0000    2.4673    2.4981    2.4863    2.4397    2.4221  0.0330  2.5875  2.5743  92.5898 31.3944 196.8475 190.0546
   10470.0000 5936.7573 1666.4608  660.2623 2097.6790 12.2500  91.2085 12.4166 0.0000    2.4187    2.4464    2.4317    2.3836    2.3675  0.0346  2.5923  2.5685  92.5898 31.0324 196.8475 190.0546
   10470.2500 5938.5562 1666.2506  660.1783 2097.5586 12.2500  90.7965 12.4229 0.0000    2.3392    2.3607    2.3432    2.2948    2.2808  0.0368  2.6395  2.5678  93.9883 31.8928 202.3516 194.4467
   10470.5000 5942.8584 1666.0402  660.0942 2097.5586 12.2500  93.0998 12.4231 0.0000    2.2430    2.2565    2.2364    2.1889    2.1771  0.0395  2.6872  2.5673  93.9883 35.0088  -999.25 194.4467
   10470.7500 5947.5308 1665.8297  660.0101 2096.9187 12.2500  95.8033 12.4266 0.0000    2.1492    2.1547    2.1325    2.0861    2.0763  0.0406  2.7079  2.5641  95.4680 36.7984  -999.25 199.3278
   10471.0000 5953.7485 1665.6191  659.9259 2096.9187 12.2500  97.1060 12.4297 0.0000    2.0690    2.0676    2.0437    1.9980    1.9899  0.0421  2.7066  2.5636  95.4680 37.4672 209.6300 199.3278
   10471.2500 5961.5469 1665.4084  659.8416 2096.5789 12.2500  96.7215 12.4307 0.0000    2.0048    1.9979    1.9727    1.9271    1.9206  0.0423  2.6782  2.5566  96.7175 36.3136 209.6300 203.8975
   10471.5000 5972.0195 1665.1978  659.7572 2096.5789 12.2500  96.3487 12.4328 0.0000    1.9548    1.9441    1.9175    1.8716    1.8665  0.0411  2.6418  2.5480  96.7175 36.1160 209.6300 203.8975
   10471.7500 5978.6567 1664.9869  659.6727 2101.7385 12.2500  97.3022 12.4340 0.0000    1.9173    1.9043    1.8764    1.8296    1.8258  0.0407  2.6081  2.5416  97.7339 35.6964 211.9457 207.8885
   10472.0000 5976.7871 1664.7761  659.5883 2101.7385 12.2500  99.5584 12.4362 0.0000    1.8909    1.8767    1.8475    1.7995    1.7968  0.0387  2.5694  2.5335  97.7339 35.2441 211.9457 207.8885
   10472.2500 5969.7075 1664.5652  659.5037 2107.7178 12.2500 101.4889 12.4389 0.0000    1.8724    1.8577    1.8272    1.7776    1.7761  0.0372  2.5252  2.5305  98.7588 36.6466 213.8982 212.1615
   10472.5000 5963.0698 1664.3542  659.4190 2107.7178 12.2500 101.5320 12.4409 0.0000    1.8570    1.8423    1.8105    1.7593    1.7590  0.0361  2.4785  2.5260  98.7588 37.7741 213.8982 212.1615
   10472.7500 5958.8555 1664.1432  659.3343 2123.3359 12.2500 100.7394 12.4421 0.0000    1.8403    1.8255    1.7926    1.7400    1.7408  0.0351  2.4387  2.5239  99.7253 38.4628 216.1015 216.9318
   10473.0000 5956.8193 1663.9321  659.2495 2123.3359 12.2500  99.6172 12.4413 0.0000    1.8198    1.8045    1.7707    1.7170    1.7190  0.0350  2.4172  2.5256  99.7253 38.7812 216.1015 216.9318
   10473.2500 5956.3540 1663.7211  659.1648 2117.3164 12.2500  99.5309 12.4469 0.0000    1.7951    1.7789    1.7443    1.6900    1.6931  0.0346  2.4315  2.5242 100.5420 39.6972 219.5131 221.0211
   10473.5000 5954.5146 1663.5098  659.0799 2106.4177 12.2500  98.4009 12.4470 0.0000    1.7689    1.7513    1.7161    1.6614    1.6656  0.0342  2.4864  2.5252 100.5420 39.0266 219.5131 221.0211
   10473.7500 5951.1836 1663.2985  658.9949 2106.4177 12.2500  97.1727 12.4483 0.0000    1.7460    1.7268    1.6908    1.6359    1.6410  0.0339  2.5725  2.5247 101.3370 38.8451 224.2857 223.7975
   10474.0000 5947.9097 1663.0872  658.9100 2106.8379 12.2500  95.9014 12.4479 0.0000    1.7295    1.7082    1.6714    1.6159    1.6220  0.0343  2.6495  2.5186 101.3370 38.8738 224.2857 223.7975
   10474.2500 5946.4023 1662.8759  658.8250 2106.8379 12.2500  96.0897 12.4494 0.0000    1.7170    1.6933    1.6555    1.5995    1.6066  0.0350  2.6951  2.5123 102.1047 42.0411 229.1175 225.9861
   10474.5000 5945.3281 1662.6646  658.7400 2103.0581 12.2500  96.0662 12.4500 0.0000    1.7026    1.6762    1.6377    1.5815    1.5894  0.0360  2.6988  2.5044 102.1047 41.9295 229.1175 225.9861
   10474.7500 5944.9810 1662.4532  658.6550 2103.0581 12.2500  96.1251 12.4496 0.0000    1.6827    1.6536    1.6147    1.5589    1.5674  0.0366  2.6598  2.4945 102.7692 41.5393 232.7345 228.1438
   10475.0000 5944.5635 1662.2419  658.5699 2097.3789 12.2500  96.2859 12.4524 0.0000    1.6586    1.6269    1.5880    1.5329    1.5421  0.0361  2.6347  2.4858 102.7692 40.6307 232.7345 228.1438
   10475.2500 5943.7266 1662.0305  658.4848 2097.3789 12.2500  95.0342 12.4518 0.0000    1.6342    1.6002    1.5615    1.5074    1.5171  0.0363  2.6312  2.4806 103.4443 41.2873 235.2746 230.5751
   10475.5000 5943.5923 1661.8191  658.3997 2096.0591 12.2500  94.7478 12.4525 0.0000    1.6137    1.5779    1.5395    1.4862    1.4963  0.0362  2.6463  2.4769 104.3501 43.6729 236.7630 232.8363
   10475.7500 5943.6553 1661.6077  658.3146 2096.0591 12.2500  93.3784 12.4516 0.0000    1.6000    1.5629    1.5247    1.4719    1.4825  0.0369  2.6769  2.4756 104.3501 42.1179 236.7630 232.8363
   10476.0000 5943.4502 1661.3962  658.2295 2096.3589 12.2500  91.3263 12.4527 0.0000    1.5942    1.5566    1.5185    1.4658    1.4768  0.0388  2.6863  2.4765 105.0858 42.0323 236.4574 234.3401
   10476.2500 5943.2686 1661.1848  658.1443 2096.3589 12.2500  90.4199 12.4543 0.0000    1.5972    1.5596    1.5214    1.4684    1.4800  0.0409  2.6811  2.4774 105.0858 38.2335 236.4574 234.3401
   10476.5000 5943.0942 1660.9733  658.0591 2096.6387 12.2500  89.2898 12.4557 0.0000    1.6097    1.5727    1.5343    1.4803    1.4926  0.0439  2.6725  2.4780 105.0844 39.2249 234.1134 234.4451
   10476.7500 5942.1958 1660.7617  657.9739 2096.6387 12.2500  89.6351 12.4557 0.0000    1.6312    1.5953    1.5564    1.5011    1.5140  0.0467  2.6740  2.4785 105.0844 39.0119 234.1134 234.4451
