~Version Information
 VERS.                  2.0:   CWLS log ASCII Standard -VERSION 2.0
 WRAP.                   NO:   One line per depth step
~Well Information Block
#MNEM.UNIT     VALUE/NAME     DESCRIPTION
#---------     -----------    ---------------------------
 STRT.F              6550.0000: START DEPTH
 STOP.F             12465.0000: STOP DEPTH
 STEP.F                 0.2500: STEP DEPTH
 NULL.                 -999.25: NULL VALUE
 DMF .                      KB:  DRILL MEAS FROM
 PDAT.                      GL:  PERMANENT DATUM
 DATE.             25-Dec-2019:  DATE
 SVCO.             Halliburton:  SERVICECONAME
 HIDE.                        :  WELLNAMEOPERAT
 BASI.                   BACIA:  BASIN
 UWI .                     N/A:  UNIQUE WELL IDENTIFIER
 API .                     N/A:  API NUMBER
 RANG.                     N/A:  RANGE
 TOWN.                     N/A:  TOWNSHIP
 SECT.                     N/A:  SECTION
 SON .                     N/A:  JOB NUMBER
 CNTY.                        :  COUNTY
 COMP.                        :  COMPANY
 CTRY.                        :  COUNTRY
 FLD .                   Oredo:  FIELD
 PROV.                        :  PROVINCE
 SRVC.             Halliburton:  SERVICE COMPANY
 STAT.                        :  STATE
 WELL.                Oredo 16:  WELL
 LOC .                        :  LOCATION
 LMF .                      KB:  LOG MEASURED FROM
 BAP .ft                0.0000:  GL ELEV ONSHORE
 GVFD.g                 1.0000:  GRAVITY FIELD
~Parameter Information Block
#MNEM.UNIT       Value        Description
#---------     -----------    ---------------------------
 BARI.                     OFF:  BARITE CORR 
 DCS .               25-Dec-19:  DateCircEndT 
 ENGI.          OLUCHI OHANEHI:  Engineer Name 
 IQVR.     WL INSITE R6.2.1 (Build 2):  WLIQ Version 
 LTYP.                     RAW:  LogDataType 
 RUN .                       3:  Run Number 
 SCT1.               26-Dec-19:  StartDateRun1 
 SVCN.     QUAD COMBO TOOLSTRING:  Service Name 
 SVCS.     RWCH, GTET, DSNT, SDLT, WSTT-I Receivers, ACRt Sonde:  Services 
 TCS .                   17 14:  Time Ciculation Ended 
 TDCE.ucts  17.14.51 25-Dec-19:  Time Circ End 
~Curve Information Block
#MNEM.UNIT                 API CODE     Curve Description
#---------               -----------    ---------------------------
 DEPT.ft                00 000 000 000:  Depth
 TENS.lbs               00 000 000 000:  Tension
 BHVT.ft3               00 000 000 000:  Borehole Volume
 AHVT.ft3               00 000 000 000:  Annular Volume
 DHTN.lbs               00 000 000 000:  CH Tension
 BITSIZE.in             00 000 000 000:  Bit Size
 GR  .api               00 000 000 000:  Gamma API
 CALI.in                00 000 000 000:  Caliper
 MMK .                  00 000 000 000:  Minute Mark
 RT10.ohmm              00 000 000 000:  10in Resistivity 2ft Res
 RT20.ohmm              00 000 000 000:  20in Resistivity 2ft Res
 RT30.ohmm              00 000 000 000:  30in Resistivity 2ft Res
 RT60.ohmm              00 000 000 000:  60in Resistivity 2ft Res
 RT90.ohmm              00 000 000 000:  90in Resistivity 2ft Res
 DRHO.g/cc              00 000 000 000:  DensityCorr
 PE  .                  00 000 000 000:  Pe
 RHOB.g/cc              00 000 000 000:  Density
 MDT .uspf              00 000 000 000:  MonoDeltaT
 NPHI.pu                00 000 000 000:  Neutron Porosity
 DXDT.uspf              00 000 000 000:  DipXDeltaT
 DYDT.uspf              00 000 000 000:  DipYDeltaT
#Other Information
#
#WARRANTY: Halliburton will use its best efforts to furnish customers with 
#accurate information and interpretations that are part of, and incident to, the services 
#provided.  However, Halliburton cannot and does not warrant the accuracy 
#or correctness of such information and interpretations.  Under no circumstances should any 
#such information or interpretation be relied upon as the sole basis for any drilling, 
#completion, production, or financial decision or any procedure involving any risk to the 
#safety of any drilling venture, drilling rig or its crew or any other third party.  The 
#Customer has full responsibility for all drilling, completion and production operation.  
#Halliburton makes no representations or warranties, either expressed or 
#implied, including, but not limited to, the implied warranties of merchantability or fitness 
#for a particular purpose, with respect to the services rendered.  In no event will 
#Halliburton be liable for failure to obtain any particular results or for 
#any damages, including, but not limited to, indirect, special or consequential damages, 
#resulting from the use of any information or interpretation provided by Halliburton.
#
~A    DEPT      TENS      BHVT      AHVT      DHTN    BITSIZE    GR     CALI    MMK     RT10      RT20      RT30      RT60      RT90     DRHO     PE     RHOB     MDT     NPHI     DXDT     DYDT   
# ...
    8902.0000 5300.4028 2942.4907 1144.7700 1850.1471 12.2500  45.0687 12.2821 0.0000    3.9162    3.9013    3.7852    3.6465    3.5864  0.0320  1.6127  2.2133  94.0490 32.1826 161.3336 165.0943
    8902.2500 5303.3467 2942.2849 1144.6907 1849.4070 12.2500  45.8927 12.2862 0.0000    3.9943    3.9870    3.8671    3.7223    3.6598  0.0281  1.6123  2.2305  93.6535 32.3310 160.8868 164.8018
    8902.5000 5304.0249 2942.0791 1144.6112 1849.5869 12.2500  47.2032 12.2876 0.0000    4.1185    4.1150    3.9873    3.8333    3.7671  0.0238  1.6305  2.2495  93.6535 32.2389 160.8868 164.8018
    8902.7500 5305.3677 2941.8733 1144.5316 1849.5869 12.2500  49.3417 12.2952 0.0000    4.2662    4.2617    4.1230    3.9584    3.8878  0.0207  1.6750  2.2732  92.8923 31.7702 161.2358 165.2983
    8903.0000 5307.0879 2941.6672 1144.4518 1852.2068 12.2500  53.1438 12.2870 0.0000    4.4000    4.3882    4.2372    4.0631    3.9888  0.0193  1.7518  2.2956  92.8923 31.1257 161.2358 165.2983
    8903.2500 5308.2793 2941.4614 1144.3722 1852.2068 12.2500  56.1965 12.2718 0.0000    4.4815    4.4562    4.2942    4.1147    4.0385  0.0177  1.8135  2.3088  92.2926 30.5928 162.3152 166.7721
    8903.5000 5308.7603 2941.2561 1144.2932 1852.2668 12.2500  58.3860 12.2612 0.0000    4.4965    4.4526    4.2833    4.1039    4.0280  0.0194  1.8477  2.3159  92.2926 32.9604 162.3152 166.7721
    8903.7500 5308.3428 2941.0510 1144.2146 1852.2668 12.2500  57.2128 12.2335 0.0000    4.4625    4.3981    4.2250    4.0494    3.9754  0.0213  1.8477  2.3110  92.2926 32.6010 162.3152 166.7721
    8904.0000 5308.1055 2940.8469 1144.1368 1853.8066 12.2500  54.2307 12.2330 0.0000    4.4102    4.3266    4.1513    3.9806    3.9091  0.0224  1.8268  2.3014  92.4223 35.0381 163.8523 168.6015
    8904.2500 5306.9849 2940.6428 1144.0591 1853.8066 12.2500  51.4958 12.2347 0.0000    4.3606    4.2602    4.0831    3.9169    3.8477  0.0245  1.8164  2.2936  92.4223 34.3733 163.8523 168.6015
    8904.5000 5304.7681 2940.4387 1143.9813 1854.0062 12.2500  48.4274 12.2357 0.0000    4.3178    4.2041    4.0256    3.8630    3.7958  0.0247  1.8217  2.2858  93.1121 35.2900 165.3254 169.8291
    8904.7500 5304.2300 2940.2346 1143.9034 1854.2465 12.2500  47.2425 12.2371 0.0000    4.2784    4.1551    3.9758    3.8164    3.7509  0.0242  1.8451  2.2794  93.1121 34.4068 165.3254 169.8291
    8905.0000 5304.0962 2940.0305 1143.8256 1854.2465 12.2500  46.6460 12.2372 0.0000    4.2428    4.1135    3.9342    3.7774    3.7135  0.0225  1.8407  2.2661  93.6475 34.6096 166.5212 169.8245
    8905.2500 5302.6055 2939.8264 1143.7477 1852.6068 12.2500  47.6545 12.2360 0.0000    4.2187    4.0866    3.9074    3.7522    3.6895  0.0195  1.8173  2.2515  93.6475 34.1819 166.5212 169.8245
    8905.5000 5302.1938 2939.6223 1143.6698 1852.6068 12.2500  47.7212 12.2371 0.0000    4.2177    4.0853    3.9054    3.7500    3.6878  0.0162  1.7765  2.2338  93.4380 34.4534 166.5385 168.3581
    8905.7500 5304.2549 2939.4182 1143.5919 1852.1071 12.2500  47.0266 12.2302 0.0000    4.2505    4.1197    3.9370    3.7790    3.7163  0.0149  1.7029  2.2181  93.4380 34.0525 166.5385 168.3581
    8906.0000 5306.4326 2939.2144 1143.5143 1852.1071 12.2500  44.5311 12.2129 0.0000    4.3206    4.1924    4.0048    3.8415    3.7772  0.0156  1.6493  2.2131  93.4380 33.9873 166.5385 168.3581
    8906.2500 5307.6953 2939.0110 1143.4373 1850.8469 12.2500  41.2861 12.1993 0.0000    4.4172    4.2925    4.0982    3.9277    3.8611  0.0176  1.5916  2.2123  92.3749 33.2767 164.2971 165.5588
    8906.5000 5307.1509 2938.8081 1143.3606 1850.8469 12.2500  39.1987 12.1957 0.0000    4.5185    4.3979    4.1969    4.0187    3.9497  0.0199  1.5198  2.2158  92.3749 33.9252 164.2971 165.5588
    8906.7500 5305.3354 2938.6052 1143.2841 1850.9670 12.2500  38.1432 12.1958 0.0000    4.6051    4.4889    4.2826    4.0979    4.0268  0.0199  1.4588  2.2236  90.3827 33.0413 160.4735 162.4585
    8907.0000 5304.9253 2938.4023 1143.2075 1852.0267 12.2500  37.8528 12.1975 0.0000    4.6692    4.5568    4.3471    4.1577    4.0852  0.0203  1.4028  2.2345  90.3827 31.0437 160.4735 162.4585
    8907.2500 5305.3906 2938.1995 1143.1310 1852.0267 12.2500  37.4761 12.1987 0.0000    4.7091    4.5994    4.3883    4.1963    4.1229  0.0211  1.3659  2.2456  89.1066 30.2099 158.2014 160.7187
    8907.5000 5304.6172 2937.9966 1143.0544 1850.6670 12.2500  37.4801 12.1983 0.0000    4.7233    4.6151    4.4046    4.2123    4.1388  0.0235  1.3640  2.2590  89.1066 30.0571 158.2014 160.7187
    8907.7500 5303.8447 2937.7937 1142.9779 1850.6670 12.2500  37.9391 12.1951 0.0000    4.7101    4.6024    4.3946    4.2043    4.1314  0.0282  1.3857  2.2709  89.6365 31.8896 157.9486 160.8599
    8908.0000 5303.4731 2937.5908 1142.9015 1850.4470 12.2500  38.5748 12.1936 0.0000    4.6706    4.5630    4.3599    4.1738    4.1022  0.0318  1.4035  2.2756  89.6365 32.0544 157.9486 160.8599
    8908.2500 5303.6860 2937.3882 1142.8251 1850.4470 12.2500  38.5670 12.1873 0.0000    4.6145    4.5066    4.3094    4.1288    4.0587  0.0355  1.4146  2.2784  89.6365 32.1639 157.9486 160.8599
    8908.5000 5303.2988 2937.1855 1142.7489 1850.5471 12.2500  38.0137 12.1883 0.0000    4.5585    4.4503    4.2588    4.0838    4.0152  0.0377  1.4185  2.2799  90.9945 32.6183 158.9023 161.8419
    8908.7500 5302.3125 2936.9829 1142.6726 1849.9871 12.2500  37.2643 12.1887 0.0000    4.5210    4.4126    4.2251    4.0546    3.9867  0.0394  1.4190  2.2827  90.9945 31.6065 158.9023 161.8419
    8909.0000 5300.6631 2936.7803 1142.5963 1849.9871 12.2500  36.5462 12.1941 0.0000    4.5133    4.4051    4.2191    4.0510    3.9829  0.0415  1.4327  2.2880  91.9554 31.1303 159.7092 162.4613
    8909.2500 5300.2056 2936.5776 1142.5199 1849.9270 12.2500  36.6914 12.1962 0.0000    4.5292    4.4214    4.2353    4.0680    3.9989  0.0418  1.4543  2.2914  91.9554 28.9516 159.7092 162.4613
    8909.5000 5300.4102 2936.3748 1142.4434 1849.9270 12.2500  36.8248 12.1922 0.0000    4.5404    4.4336    4.2475    4.0817    4.0116  0.0418  1.4698  2.2902  92.5438 29.4325 160.1735 162.5377
    8909.7500 5300.5215 2936.1721 1142.3669 1849.1270 12.2500  36.9974 12.1930 0.0000    4.5117    4.4067    4.2237    4.0624    3.9924  0.0408  1.4814  2.2811  92.5438 31.1501 160.1735 162.5377
    8910.0000 5299.7554 2935.9695 1142.2905 1849.1270 12.2500  38.1706 12.1876 0.0000    4.4298    4.3272    4.1513    3.9983    3.9297  0.0399  1.4867  2.2686  92.5438 33.9598 160.1735 162.5377
    8910.2500 5299.2974 2935.7668 1142.2144 1848.5420 12.2500  38.5042 12.1878 0.0000    4.3161    4.2161    4.0495    3.9067    3.8405  0.0407  1.4894  2.2588  92.9109 32.9892 160.3964 162.4981
    8910.5000 5299.2666 2935.5642 1142.1382 1848.0872 12.2500  40.4778 12.1876 0.0000    4.2147    4.1168    3.9586    3.8251    3.7610  0.0419  1.5001  2.2538  92.9109 32.3204 160.3964 162.4981
    8910.7500 5299.2588 2935.3616 1142.0620 1848.0872 12.2500  43.1421 12.1921 0.0000    4.1660    4.0694    3.9161    3.7887    3.7252  0.0432  1.5170  2.2562  93.0835 31.2647 160.2099 162.5692
    8911.0000 5298.5962 2935.1589 1141.9856 1846.4075 12.2500  45.2452 12.1887 0.0000    4.1862    4.0902    3.9374    3.8123    3.7474  0.0437  1.5357  2.2636  93.0835 31.4061 160.2099 162.5692
    8911.2500 5297.9009 2934.9563 1141.9093 1846.4075 12.2500  46.9835 12.1926 0.0000    4.2622    4.1670    4.0117    3.8858    3.8179  0.0432  1.5553  2.2716  92.8706 31.5156 159.6320 162.7559
    8911.5000 5296.5352 2934.7537 1141.8329 1843.7275 12.2500  46.2301 12.1976 0.0000    4.3647    4.2715    4.1128    3.9850    3.9131  0.0434  1.5679  2.2780  92.8706 31.9634 159.6320 162.7559
    8911.7500 5295.5410 2934.5508 1141.7563 1843.7275 12.2500  44.5350 12.2052 0.0000    4.4679    4.3790    4.2182    4.0885    4.0126  0.0438  1.5669  2.2816  91.7385 33.9497 158.9142 162.8175
    8912.0000 5294.8936 2934.3477 1141.6796 1833.3088 12.2500  43.5776 12.2220 0.0000    4.5636    4.4827    4.3216    4.1906    4.1106  0.0458  1.5655  2.2831  91.7385 35.7334 158.9142 162.8175
    8912.2500 5293.9316 2934.1440 1141.6022 1833.3088 12.2500  44.5036 12.2210 0.0000    4.6638    4.5954    4.4354    4.3028    4.2184  0.0484  1.5825  2.2881  91.7385 35.5811 158.9142 162.8175
