~Version Information
 VERS.                  2.0:   CWLS log ASCII Standard -VERSION 2.0
 WRAP.                   NO:   One line per depth step
~Well Information Block
#MNEM.UNIT     VALUE/NAME     DESCRIPTION
#---------     -----------    ---------------------------
 STRT.F              6550.0000: START DEPTH
 STOP.F             12465.0000: STOP DEPTH
 STEP.F                 0.2500: STEP DEPTH
 NULL.                 -999.25: NULL VALUE
 DMF .                      KB:  DRILL MEAS FROM
 PDAT.                      GL:  PERMANENT DATUM
 DATE.             25-Dec-2019:  DATE
 SVCO.             Halliburton:  SERVICECONAME
 HIDE.                        :  WELLNAMEOPERAT
 BASI.                   BACIA:  BASIN
 UWI .                     N/A:  UNIQUE WELL IDENTIFIER
 API .                     N/A:  API NUMBER
 RANG.                     N/A:  RANGE
 TOWN.                     N/A:  TOWNSHIP
 SECT.                     N/A:  SECTION
 SON .                     N/A:  JOB NUMBER
 CNTY.                        :  COUNTY
 COMP.                        :  COMPANY
 CTRY.                        :  COUNTRY
 FLD .                   Oredo:  FIELD
 PROV.                        :  PROVINCE
 SRVC.             Halliburton:  SERVICE COMPANY
 STAT.                        :  STATE
 WELL.                Oredo 16:  WELL
 LOC .                        :  LOCATION
 LMF .                      KB:  LOG MEASURED FROM
 BAP .ft                0.0000:  GL ELEV ONSHORE
 GVFD.g                 1.0000:  GRAVITY FIELD
~Parameter Information Block
#MNEM.UNIT       Value        Description
#---------     -----------    ---------------------------
 BARI.                     OFF:  BARITE CORR 
 DCS .               25-Dec-19:  DateCircEndT 
 ENGI.          OLUCHI OHANEHI:  Engineer Name 
 IQVR.     WL INSITE R6.2.1 (Build 2):  WLIQ Version 
 LTYP.                     RAW:  LogDataType 
 RUN .                       3:  Run Number 
 SCT1.               26-Dec-19:  StartDateRun1 
 SVCN.     QUAD COMBO TOOLSTRING:  Service Name 
 SVCS.     RWCH, GTET, DSNT, SDLT, WSTT-I Receivers, ACRt Sonde:  Services 
 TCS .                   17 14:  Time Ciculation Ended 
 TDCE.ucts  17.14.51 25-Dec-19:  Time Circ End 
~Curve Information Block
#MNEM.UNIT                 API CODE     Curve Description
#---------               -----------    ---------------------------
 DEPT.ft                00 000 000 000:  Depth
 TENS.lbs               00 000 000 000:  Tension
 BHVT.ft3               00 000 000 000:  Borehole Volume
 AHVT.ft3               00 000 000 000:  Annular Volume
 DHTN.lbs               00 000 000 000:  CH Tension
 BITSIZE.in             00 000 000 000:  Bit Size
 GR  .api               00 000 000 000:  Gamma API
 CALI.in                00 000 000 000:  Caliper
 MMK .                  00 000 000 000:  Minute Mark
 RT10.ohmm              00 000 000 000:  10in Resistivity 2ft Res
 RT20.ohmm              00 000 000 000:  20in Resistivity 2ft Res
 RT30.ohmm              00 000 000 000:  30in Resistivity 2ft Res
 RT60.ohmm              00 000 000 000:  60in Resistivity 2ft Res
 RT90.ohmm              00 000 000 000:  90in Resistivity 2ft Res
 DRHO.g/cc              00 000 000 000:  DensityCorr
 PE  .                  00 000 000 000:  Pe
 RHOB.g/cc              00 000 000 000:  Density
 MDT .uspf              00 000 000 000:  MonoDeltaT
 NPHI.pu                00 000 000 000:  Neutron Porosity
 DXDT.uspf              00 000 000 000:  DipXDeltaT
 DYDT.uspf              00 000 000 000:  DipYDeltaT
#Other Information
#
#WARRANTY: Halliburton will use its best efforts to furnish customers with 
#accurate information and interpretations that are part of, and incident to, the services 
#provided.  However, Halliburton cannot and does not warrant the accuracy 
#or correctness of such information and interpretations.  Under no circumstances should any 
#such information or interpretation be relied upon as the sole basis for any drilling, 
#completion, production, or financial decision or any procedure involving any risk to the 
#safety of any drilling venture, drilling rig or its crew or any other third party.  The 
#Customer has full responsibility for all drilling, completion and production operation.  
#Halliburton makes no representations or warranties, either expressed or 
#implied, including, but not limited to, the implied warranties of merchantability or fitness 
#for a particular purpose, with respect to the services rendered.  In no event will 
#Halliburton be liable for failure to obtain any particular results or for 
#any damages, including, but not limited to, indirect, special or consequential damages, 
#resulting from the use of any information or interpretation provided by Halliburton.
#
~A    DEPT      TENS      BHVT      AHVT      DHTN    BITSIZE    GR     CALI    MMK     RT10      RT20      RT30      RT60      RT90     DRHO     PE     RHOB     MDT     NPHI     DXDT     DYDT   
# ...
   12430.0000 6914.6138   -999.25   -999.25 2529.8899 12.2500  -999.25 -999.25 0.0000    2.7560    2.7100    2.6537    2.6021    2.6030 -999.25 -999.25 -999.25  83.7385 -999.25 157.3224 165.8765
   12430.2500 6908.1987   -999.25   -999.25 2549.7476 12.2500  -999.25 -999.25 0.0000    2.7734    2.7262    2.6660    2.6141    2.6134 -999.25 -999.25 -999.25  83.8439 -999.25 157.5139 165.8457
   12430.5000 6904.4575   -999.25   -999.25 2549.7476 12.2500  -999.25 -999.25 0.0000    2.7927    2.7438    2.6798    2.6277    2.6254 -999.25 -999.25 -999.25  83.8439 -999.25 157.5139 165.8457
   12430.7500 6903.8408   -999.25   -999.25 2527.9700 12.2500  -999.25 -999.25 0.0000    2.8072    2.7557    2.6883    2.6364    2.6324 -999.25 -999.25 -999.25  83.8630 -999.25 157.3927 164.8711
   12431.0000 6905.2314   -999.25   -999.25 2527.9700 12.2500  -999.25 -999.25 0.0000    2.8147    2.7595    2.6893    2.6380    2.6325 -999.25 -999.25 -999.25  83.8296 -999.25 157.2561 164.5789
   12431.2500 6906.5879   -999.25   -999.25 2523.6704 12.2500  -999.25 -999.25 0.0000    2.8146    2.7543    2.6821    2.6318    2.6247 -999.25 -999.25 -999.25  83.8296 -999.25 157.2561 164.5789
   12431.5000 6909.2480   -999.25   -999.25 2513.4116 12.2500  -999.25 -999.25 0.0000    2.8029    2.7365    2.6633    2.6146    2.6062 -999.25 -999.25 -999.25  84.0218 -999.25 157.0427 164.9924
   12431.7500 6911.5757   -999.25   -999.25 2513.4116 12.2500  -999.25 -999.25 0.0000    2.7749    2.7019    2.6292    2.5826    2.5732 -999.25 -999.25 -999.25  84.4303 -999.25 156.6351 164.9798
   12432.0000 6912.8535   -999.25   -999.25 2508.7522 12.2500  -999.25 -999.25 0.0000    2.7322    2.6532    2.5825    2.5386    2.5283 -999.25 -999.25 -999.25  84.4303 -999.25 156.6351 164.9798
   12432.2500 6914.2441   -999.25   -999.25 2508.7522 12.2500  -999.25 -999.25 0.0000    2.6873    2.6038    2.5361    2.4948    2.4839 -999.25 -999.25 -999.25  84.6498 -999.25 156.6129 164.1807
   12432.5000 6914.7559   -999.25   -999.25 2521.9702 12.2500  -999.25 -999.25 0.0000    2.6586    2.5726    2.5080    2.4688    2.4572 -999.25 -999.25 -999.25  84.3611 -999.25 157.3028 163.4160
   12432.7500 6915.1904   -999.25   -999.25 2517.4109 12.2500  -999.25 -999.25 0.0000    2.6615    2.5750    2.5133    2.4752    2.4628 -999.25 -999.25 -999.25  84.3611 -999.25 157.3028 163.4160
   12433.0000 6912.7827   -999.25   -999.25 2517.4109 12.2500  -999.25 -999.25 1.0000    2.7066    2.6219    2.5625    2.5243    2.5108 -999.25 -999.25 -999.25  83.9683 -999.25 158.0226 163.1894
   12433.2500 6906.2563   -999.25   -999.25 2524.8901 12.2500  -999.25 -999.25 0.0000    2.8036    2.7232    2.6656    2.6258    2.6107 -999.25 -999.25 -999.25  83.9516 -999.25 158.1131 163.4970
   12433.5000 6899.1147   -999.25   -999.25 2524.8901 12.2500  -999.25 -999.25 0.0000    2.9625    2.8896    2.8331    2.7899    2.7724 -999.25 -999.25 -999.25  84.2045 -999.25 157.8307 163.8837
   12433.7500 6891.8853   -999.25   -999.25 2535.9895 12.2500  -999.25 -999.25 0.0000    3.1886    3.1267    3.0709    3.0222    3.0014 -999.25 -999.25 -999.25  84.2045 -999.25 157.8307 163.8837
   12434.0000 6884.7734   -999.25   -999.25 2529.1899 12.2500  -999.25 -999.25 0.0000    3.4734    3.4268    3.3720    3.3156    3.2902 -999.25 -999.25 -999.25  84.3424 -999.25 157.5136 163.8045
   12434.2500 6880.9072   -999.25   -999.25 2529.1899 12.2500  -999.25 -999.25 0.0000    3.7892    3.7613    3.7086    3.6426    3.6119 -999.25 -999.25 -999.25  84.1886 -999.25 157.2438 163.3862
   12434.5000 6883.5029   -999.25   -999.25 2515.9915 12.2500  -999.25 -999.25 0.0000    4.0902    4.0820    4.0328    3.9570    3.9208 -999.25 -999.25 -999.25  83.8848 -999.25 156.9347 163.1877
   12434.7500 6888.5220   -999.25   -999.25 2515.9915 12.2500  -999.25 -999.25 0.0000    4.3314    4.3390    4.2954    4.2113    4.1704 -999.25 -999.25 -999.25  83.6235 -999.25 156.6506 163.8853
   12435.0000 6893.4468   -999.25   -999.25 2493.6938 12.2500  -999.25 -999.25 0.0000    4.4917    4.5104    4.4719    4.3822    4.3380 -999.25 -999.25 -999.25  83.6235 -999.25 156.6506 163.8853
   12435.2500 6897.8755   -999.25   -999.25 2483.6753 12.2500  -999.25 -999.25 0.0000    4.5835    4.6090    4.5739    4.4806    4.4345 -999.25 -999.25 -999.25  83.4242 -999.25 156.8110 165.0378
   12435.5000 6899.6514   -999.25   -999.25 2483.6753 12.2500  -999.25 -999.25 0.0000    4.6411    4.6710    4.6368    4.5411    4.4937 -999.25 -999.25 -999.25  83.4242 -999.25 156.8110 165.0378
   12435.7500 6903.7544   -999.25   -999.25 2497.3535 12.2500  -999.25 -999.25 0.0000    4.6979    4.7314    4.6960    4.5974    4.5488 -999.25 -999.25 -999.25  83.4583 -999.25 157.2505 165.4342
   12436.0000 6909.8003   -999.25   -999.25 2497.3535 12.2500  -999.25 -999.25 0.0000    4.7709    4.8085    4.7697    4.6673    4.6169 -999.25 -999.25 -999.25  83.4583 -999.25 157.2505 165.4342
   12436.2500 6916.9663   -999.25   -999.25 2497.1338 12.2500  -999.25 -999.25 0.0000    4.8626    4.9052    4.8611    4.7539    4.7009 -999.25 -999.25 -999.25  83.7156 -999.25 157.4158 164.8101
   12436.5000 6922.2612   -999.25   -999.25 2494.8137 12.2500  -999.25 -999.25 0.0000    4.9710    5.0195    4.9685    4.8553    4.7992 -999.25 -999.25 -999.25  83.8838 -999.25 157.4317 164.2135
   12436.7500 6924.8662   -999.25   -999.25 2494.8137 12.2500  -999.25 -999.25 0.0000    5.0909    5.1461    5.0867    4.9667    4.9068 -999.25 -999.25 -999.25  83.8838 -999.25 157.4317 164.2135
   12437.0000 6927.0059   -999.25   -999.25 2470.7366 12.2500  -999.25 -999.25 0.0000    5.2119    5.2746    5.2054    5.0784    5.0142 -999.25 -999.25 -999.25  83.8167 -999.25 157.5632 164.5910
   12437.2500 6927.2339   -999.25   -999.25 2470.7366 12.2500  -999.25 -999.25 0.0000    5.3212    5.3910    5.3112    5.1776    5.1089 -999.25 -999.25 -999.25  83.8167 -999.25 157.5632 164.5910
   12437.5000 6928.2681   -999.25   -999.25 2524.1506 12.2500  -999.25 -999.25 0.0000    5.4054    5.4798    5.3891    5.2501    5.1770 -999.25 -999.25 -999.25  83.5973 -999.25 157.6137 165.4545
   12437.7500 6927.6992   -999.25   -999.25 2523.9907 12.2500  -999.25 -999.25 0.0000    5.4490    5.5228    5.4217    5.2794    5.2028 -999.25 -999.25 -999.25  83.5233 -999.25 157.2837 165.7431
   12438.0000 6927.2661   -999.25   -999.25 2523.9907 12.2500  -999.25 -999.25 0.0000    5.4361    5.5020    5.3918    5.2496    5.1708 -999.25 -999.25 -999.25  83.7214 -999.25 156.8285 165.2769
   12438.2500 6928.0386   -999.25   -999.25 2534.0295 12.2500  -999.25 -999.25 0.0000    5.3586    5.4089    5.2925    5.1540    5.0748 -999.25 -999.25 -999.25  83.9764 -999.25 156.7886 164.6175
   12438.5000 6929.8853   -999.25   -999.25 2534.0295 12.2500  -999.25 -999.25 0.0000    5.2246    5.2540    5.1351    5.0031    4.9253 -999.25 -999.25 -999.25  83.9764 -999.25 156.7886 164.6175
   12438.7500 6934.4707   -999.25   -999.25 2463.1577 12.2500  -999.25 -999.25 0.0000    5.0597    5.0674    4.9497    4.8258    4.7503 -999.25 -999.25 -999.25  83.9766 -999.25 156.8214 164.1200
   12439.0000 6937.6045   -999.25   -999.25 2518.0710 12.2500  -999.25 -999.25 0.0000    4.9004    4.8904    4.7765    4.6600    4.5867 -999.25 -999.25 -999.25  83.9766 -999.25 156.8214 164.1200
   12439.2500 6936.3809   -999.25   -999.25 2518.0710 12.2500  -999.25 -999.25 0.0000    4.7795    4.7590    4.6494    4.5382    4.4661 -999.25 -999.25 -999.25  83.6975 -999.25 156.6429 163.5902
   12439.5000 6934.4321   -999.25   -999.25 2526.7700 12.2500  -999.25 -999.25 0.0000    4.7147    4.6922    4.5863    4.4773    4.4047 -999.25 -999.25 -999.25  83.4292 -999.25 156.5316 163.5112
   12439.7500 6931.5269   -999.25   -999.25 2526.7700 12.2500  -999.25 -999.25 0.0000    4.7076    4.6912    4.5880    4.4782    4.4035 -999.25 -999.25 -999.25  83.3061 -999.25 156.6958 164.6966
   12440.0000 6932.4976   -999.25   -999.25 2525.8706 12.2500  -999.25 -999.25 0.0000    4.7458    4.7422    4.6408    4.5278    4.4495 -999.25 -999.25 -999.25  83.3541 -999.25 157.1166 166.3759
   12440.2500 6938.6465   -999.25   -999.25 2537.3691 12.2500  -999.25 -999.25 0.0000    4.8049    4.8179    4.7185    4.6009    4.5182 -999.25 -999.25 -999.25  83.6498 -999.25 157.3575 166.7884
