~Version Information
 VERS.                  2.0:   CWLS log ASCII Standard -VERSION 2.0
 WRAP.                   NO:   One line per depth step
~Well Information Block
#MNEM.UNIT     VALUE/NAME     DESCRIPTION
#---------     -----------    ---------------------------
 STRT.F              6550.0000: START DEPTH
 STOP.F             12465.0000: STOP DEPTH
 STEP.F                 0.2500: STEP DEPTH
 NULL.                 -999.25: NULL VALUE
 DMF .                      KB:  DRILL MEAS FROM
 PDAT.                      GL:  PERMANENT DATUM
 DATE.             25-Dec-2019:  DATE
 SVCO.             Halliburton:  SERVICECONAME
 HIDE.                        :  WELLNAMEOPERAT
 BASI.                   BACIA:  BASIN
 UWI .                     N/A:  UNIQUE WELL IDENTIFIER
 API .                     N/A:  API NUMBER
 RANG.                     N/A:  RANGE
 TOWN.                     N/A:  TOWNSHIP
 SECT.                     N/A:  SECTION
 SON .                     N/A:  JOB NUMBER
 CNTY.                        :  COUNTY
 COMP.                        :  COMPANY
 CTRY.                        :  COUNTRY
 FLD .                   Oredo:  FIELD
 PROV.                        :  PROVINCE
 SRVC.             Halliburton:  SERVICE COMPANY
 STAT.                        :  STATE
 WELL.                Oredo 16:  WELL
 LOC .                        :  LOCATION
 LMF .                      KB:  LOG MEASURED FROM
 BAP .ft                0.0000:  GL ELEV ONSHORE
 GVFD.g                 1.0000:  GRAVITY FIELD
~Parameter Information Block
#MNEM.UNIT       Value        Description
#---------     -----------    ---------------------------
 BARI.                     OFF:  BARITE CORR 
 DCS .               25-Dec-19:  DateCircEndT 
 ENGI.          OLUCHI OHANEHI:  Engineer Name 
 IQVR.     WL INSITE R6.2.1 (Build 2):  WLIQ Version 
 LTYP.                     RAW:  LogDataType 
 RUN .                       3:  Run Number 
 SCT1.               26-Dec-19:  StartDateRun1 
 SVCN.     QUAD COMBO TOOLSTRING:  Service Name 
 SVCS.     RWCH, GTET, DSNT, SDLT, WSTT-I Receivers, ACRt Sonde:  Services 
 TCS .                   17 14:  Time Ciculation Ended 
 TDCE.ucts  17.14.51 25-Dec-19:  Time Circ End 
~Curve Information Block
#MNEM.UNIT                 API CODE     Curve Description
#---------               -----------    ---------------------------
 DEPT.ft                00 000 000 000:  Depth
 TENS.lbs               00 000 000 000:  Tension
 BHVT.ft3               00 000 000 000:  Borehole Volume
 AHVT.ft3               00 000 000 000:  Annular Volume
 DHTN.lbs               00 000 000 000:  CH Tension
 BITSIZE.in             00 000 000 000:  Bit Size
 GR  .api               00 000 000 000:  Gamma API
 CALI.in                00 000 000 000:  Caliper
 MMK .                  00 000 000 000:  Minute Mark
 RT10.ohmm              00 000 000 000:  10in Resistivity 2ft Res
 RT20.ohmm              00 000 000 000:  20in Resistivity 2ft Res
 RT30.ohmm              00 000 000 000:  30in Resistivity 2ft Res
 RT60.ohmm              00 000 000 000:  60in Resistivity 2ft Res
 RT90.ohmm              00 000 000 000:  90in Resistivity 2ft Res
 DRHO.g/cc              00 000 000 000:  DensityCorr
 PE  .                  00 000 000 000:  Pe
 RHOB.g/cc              00 000 000 000:  Density
 MDT .uspf              00 000 000 000:  MonoDeltaT
 NPHI.pu                00 000 000 000:  Neutron Porosity
 DXDT.uspf              00 000 000 000:  DipXDeltaT
 DYDT.uspf              00 000 000 000:  DipYDeltaT
#Other Information
#
#WARRANTY: Halliburton will use its best efforts to furnish customers with 
#accurate information and interpretations that are part of, and incident to, the services 
#provided.  However, Halliburton cannot and does not warrant the accuracy 
#or correctness of such information and interpretations.  Under no circumstances should any 
#such information or interpretation be relied upon as the sole basis for any drilling, 
#completion, production, or financial decision or any procedure involving any risk to the 
#safety of any drilling venture, drilling rig or its crew or any other third party.  The 
#Customer has full responsibility for all drilling, completion and production operation.  
#Halliburton makes no representations or warranties, either expressed or 
#implied, including, but not limited to, the implied warranties of merchantability or fitness 
#for a particular purpose, with respect to the services rendered.  In no event will 
#Halliburton be liable for failure to obtain any particular results or for 
#any damages, including, but not limited to, indirect, special or consequential damages, 
#resulting from the use of any information or interpretation provided by Halliburton.
#
~A    DEPT      TENS      BHVT      AHVT      DHTN    BITSIZE    GR     CALI    MMK     RT10      RT20      RT30      RT60      RT90     DRHO     PE     RHOB     MDT     NPHI     DXDT     DYDT   
# ...
    7726.0000 4873.8071 3896.2642 1506.7363 2021.2672 12.2500  38.7867 12.1774 0.0000   19.4004   28.0928   36.2909   41.4356   40.7167  0.0570  1.7417  2.2376  94.3697 33.2851 175.0406 177.1854
    7726.2500 4874.1538 3896.0620 1506.6604 2021.2672 12.2500  36.6325 12.1776 0.0000   18.8282   27.3193   35.4571   40.6424   39.8631  0.0556  1.7005  2.2222  95.6669 32.7351 176.1283 177.8414
    7726.5000 4876.4741 3895.8599 1506.5845 2020.8875 12.2500  35.7497 12.1756 0.0000   18.2015   26.4453   34.4525   39.6218   38.7849  0.0568  1.6632  2.2131  95.6669 32.1718 176.1283 177.8414
    7726.7500 4878.5347 3895.6577 1506.5087 2020.8875 12.2500  35.9694 12.1751 0.0000   17.6393   25.6479   33.5097   38.6404   37.7474  0.0560  1.6406  2.2052  96.3475 32.7210 175.9915 178.3268
    7727.0000 4877.7456 3895.4556 1506.4329 2020.5677 12.2500  36.2755 12.1721 0.0000   17.2464   25.0847   32.8402   37.9438   36.9931  0.0548  1.6326  2.2014  96.3475 31.7026 175.9915 178.3268
    7727.2500 4876.4741 3895.2537 1506.3572 2020.5677 12.2500  36.4206 12.1701 0.0000   17.0562   24.8068   32.5159   37.6198   36.6082  0.0540  1.6474  2.2049  96.5499 32.7048 175.0096 178.4447
    7727.5000 4875.8745 3895.0518 1506.2815 2023.4873 12.2500  36.5109 12.1718 0.0000   17.0393   24.7684   32.4811   37.6084   36.5339  0.0525  1.6848  2.2092  96.5499 32.8222 175.0096 178.4447
    7727.7500 4874.8955 3894.8499 1506.2058 2023.4873 12.2500  37.4526 12.1715 0.0000   17.1264   24.8621   32.5967   37.7516   36.6160  0.0523  1.7238  2.2163  96.5499 35.8561 175.0096 178.4447
    7728.0000 4873.9814 3894.6479 1506.1301 2022.9873 12.2500  38.6964 12.1715 0.0000   17.2133   24.9285   32.6553   37.8132   36.6247  0.0527  1.7600  2.2241  96.1228 35.4794 173.8574 178.2397
    7728.2500 4873.7363 3894.4460 1506.0544 2023.1074 12.2500  40.3797 12.1663 0.0000   17.1835   24.7950   32.4340   37.5396   36.3155  0.0529  1.7776  2.2264  96.1228 36.1548 173.8574 178.2397
    7728.5000 4874.3516 3894.2441 1505.9789 2023.1074 12.2500  40.7407 12.1651 0.0000   16.9701   24.3684   31.8165   36.8016   35.5646  0.0528  1.7743  2.2238  95.2945 35.4937 173.1520 178.2009
    7728.7500 4874.7612 3894.0422 1505.9034 2022.1674 12.2500  40.7054 12.1635 0.0000   16.6058   23.7074   30.8869   35.7018   34.4726  0.0527  1.7707  2.2185  95.2945 36.1380 173.1520 178.2009
    7729.0000 4874.7153 3893.8406 1505.8280 2022.1674 12.2500  39.7402 12.1681 0.0000   16.1870   22.9660   29.8531   34.4843   33.2761  0.0519  1.7747  2.2118  94.5057 36.5272 172.7171 177.8851
    7729.2500 4874.9678 3893.6387 1505.7524 2022.3676 12.2500  38.3315 12.1674 0.0000   15.8133   22.3021   28.9266   33.3971   32.2144  0.0512  1.7935  2.2088  94.5057 36.1834 172.7171 177.8851
    7729.5000 4875.6694 3893.4368 1505.6769 2022.3676 12.2500  37.6449 12.1775 0.0000   15.5805   21.8643   28.3046   32.6700   31.5085  0.0503  1.8262  2.2091  93.8892 36.6342 172.1457 176.8658
    7729.7500 4876.4429 3893.2346 1505.6010 2022.8473 12.2500  37.1465 12.1768 0.0000   15.5718   21.7790   28.1535   32.4965   31.3447  0.0487  1.8666  2.2146  93.8892 36.2880 172.1457 176.8658
    7730.0000 4876.5693 3893.0325 1505.5251 2022.8473 12.2500  37.9156 12.1739 0.0000   15.8194   22.0976   28.5419   32.9582   31.8009  0.0480  1.9093  2.2252  93.8892 34.6111 172.1457 176.8658
    7730.2500 4875.1250 3892.8303 1505.4493 2023.8473 12.2500  38.8141 12.1770 0.0000   16.2861   22.7726   29.4114   33.9907   32.8153  0.0478  1.9408  2.2348  93.5319 32.6659 171.4367 175.9666
    7730.5000 4872.9395 3892.6282 1505.3735 2024.9274 12.2500  39.6735 12.1723 0.0000   16.8849   23.6833   30.6100   35.4228   34.2228  0.0482  1.9677  2.2454  93.5319 32.3842 171.4367 175.9666
    7730.7500 4871.6675 3892.4260 1505.2979 2024.9274 12.2500  41.5765 12.1696 0.0000   17.5079   24.6751   31.9410   37.0314   35.8081  0.0488  1.9695  2.2482  93.6053 33.6167 171.1242 176.4015
    7731.0000 4871.2344 3892.2241 1505.2223 2024.1273 12.2500  42.4868 12.1729 0.0000   18.0498   25.5885   33.1999   38.5824   37.3442  0.0484  1.9340  2.2456  93.6053 33.0790 171.1242 176.4015
    7731.2500 4870.4453 3892.0220 1505.1466 2024.1273 12.2500  43.3030 12.1768 0.0000   18.4353   26.2984   34.2232   39.8871   38.6479  0.0477  1.8779  2.2440  93.9796 32.2925 171.8147 178.3709
    7731.5000 4869.5684 3891.8198 1505.0708 2024.0674 12.2500  42.8478 12.1711 0.0000   18.6315   26.7363   34.9171   40.8346   39.6104  0.0469  1.7945  2.2391  93.9796 33.3081 171.8147 178.3709
    7731.7500 4869.2368 3891.6179 1504.9951 2024.0674 12.2500  40.5838 12.1723 0.0000   18.6175   26.8503   35.2061   41.3316   40.1395  0.0466  1.7185  2.2377  94.4020 33.7595 173.2919 179.8922
    7732.0000 4869.6406 3891.4158 1504.9194 2023.5276 12.2500  38.9240 12.1738 0.0000   18.3712   26.5911   35.0155   41.2825   40.1401  0.0463  1.6674  2.2348  94.4020 34.3726 173.2919 179.8922
    7732.2500 4870.5947 3891.2136 1504.8436 2023.5276 12.2500  36.7855 12.1759 0.0000   17.9099   25.9755   34.3570   40.6909   39.6134  0.0461  1.6325  2.2291  94.9148 32.5058 174.7649 179.9279
    7732.5000 4873.3418 3891.0115 1504.7678 2022.7073 12.2500  35.2239 12.1771 0.0000   17.3220   25.1360   33.3975   39.7439   38.7402  0.0464  1.6163  2.2230  94.9148 31.7408 174.7649 179.9279
    7732.7500 4877.6670 3890.8093 1504.6919 2022.6273 12.2500  33.9683 12.1673 0.0000   16.7354   24.2709   32.3967   38.7418   37.8126  0.0472  1.6041  2.2179  94.9148 31.5292 174.7649 179.9279
    7733.0000 4883.0098 3890.6074 1504.6163 2022.6273 12.2500  32.5400 12.1595 0.0000   16.2414   23.5292   31.5531   37.9179   37.0586  0.0495  1.5967  2.2165  95.5317 31.1537 175.4478 178.9785
    7733.2500 4888.1147 3890.4058 1504.5410 2024.4072 12.2500  31.5826 12.1548 0.0000   15.8643   22.9611   30.9366   37.3561   36.5611  0.0524  1.6000  2.2162  95.5317 32.4292 175.4478 178.9785
    7733.5000 4891.5645 3890.2043 1504.4659 2024.4072 12.2500  31.5630 12.1546 0.0000   15.6024   22.5751   30.5617   37.0756   36.3395  0.0554  1.6145  2.2212  95.8473 31.8991 175.5597 178.0391
    7733.7500 4892.2275 3890.0029 1504.3909 2028.2468 12.2500  31.9004 12.1588 0.0000   15.4622   22.3871   30.4520   37.1065   36.4245  0.0583  1.6451  2.2282  95.8473 31.3564 175.5597 178.0391
    7734.0000 4891.1470 3889.8013 1504.3156 2028.2468 12.2500  32.8225 12.1661 0.0000   15.4533   22.4127   30.6304   37.4784   36.8457  0.0606  1.6866  2.2407  95.7356 31.1309 175.4690 177.5927
    7734.2500 4888.7471 3889.5994 1504.2400 2031.2064 12.2500  33.7328 12.1679 0.0000   15.5654   22.6325   31.0713   38.1623   37.5754  0.0629  1.7269  2.2592  95.7356 30.8196 175.4690 177.5927
    7734.5000 4885.7798 3889.3975 1504.1644 2031.2064 12.2500  33.7525 12.1717 0.0000   15.7431   22.9564   31.6493   39.0065   38.4640  0.0647  1.7646  2.2773  95.5328 32.1653 175.0483 177.2977
    7734.7500 4882.6626 3889.1956 1504.0887 2031.0066 12.2500  32.9402 12.1722 0.0000   15.8823   23.2173   32.1298   39.7213   39.2243  0.0659  1.7844  2.2902  95.5328 33.7743 175.0483 177.2977
    7735.0000 4878.9756 3888.9937 1504.0131 2031.0066 12.2500  32.3163 12.1616 0.0000   15.8570   23.2148   32.2279   39.9517   39.5030  0.0663  1.7770  2.2922  95.4393 34.9592 174.5403 177.3465
    7735.2500 4874.9678 3888.7920 1503.9377 2029.3463 12.2500  31.3629 12.1652 0.0000   15.5896   22.8243   31.7630   39.4692   39.0708  0.0660  1.7598  2.2851  95.4393 34.3740 174.5403 177.3465
    7735.5000 4873.3970 3888.5901 1503.8623 2027.0668 12.2500  30.6723 12.1831 0.0000   15.1083   22.0880   30.7895   38.3371   37.9876  0.0653  1.7263  2.2726  95.4393 31.9524 174.5403 177.3465
    7735.7500 4873.0181 3888.3877 1503.7863 2027.0668 12.2500  30.3427 12.1950 0.0000   14.5168   21.1691   29.5340   36.8337   36.5282  0.0651  1.6893  2.2639  95.4908 31.0165 174.4169 178.0393
    7736.0000 4872.9702 3888.1848 1503.7098 2025.0472 12.2500  29.8561 12.2053 0.0000   13.9262   20.2451   28.2467   35.2699   35.0008  0.0654  1.6563  2.2614  95.4908 30.1983 174.4169 178.0393
    7736.2500 4872.6621 3887.9817 1503.6331 2025.0472 12.2500  29.5344 12.2104 0.0000   13.4249   19.4597   27.1316   33.9007   33.6593  0.0651  1.6181  2.2616  95.7119 30.6617 174.7321 178.7764
