~Version Information
 VERS.                  2.0:   CWLS log ASCII Standard -VERSION 2.0
 WRAP.                   NO:   One line per depth step
~Well Information Block
#MNEM.UNIT     VALUE/NAME     DESCRIPTION
#---------     -----------    ---------------------------
 STRT.F              6550.0000: START DEPTH
 STOP.F             12465.0000: STOP DEPTH
 STEP.F                 0.2500: STEP DEPTH
 NULL.                 -999.25: NULL VALUE
 DMF .                      KB:  DRILL MEAS FROM
 PDAT.                      GL:  PERMANENT DATUM
 DATE.             25-Dec-2019:  DATE
 SVCO.             Halliburton:  SERVICECONAME
 HIDE.                        :  WELLNAMEOPERAT
 BASI.                   BACIA:  BASIN
 UWI .                     N/A:  UNIQUE WELL IDENTIFIER
 API .                     N/A:  API NUMBER
 RANG.                     N/A:  RANGE
 TOWN.                     N/A:  TOWNSHIP
 SECT.                     N/A:  SECTION
 SON .                     N/A:  JOB NUMBER
 CNTY.                        :  COUNTY
 COMP.                        :  COMPANY
 CTRY.                        :  COUNTRY
 FLD .                   Oredo:  FIELD
 PROV.                        :  PROVINCE
 SRVC.             Halliburton:  SERVICE COMPANY
 STAT.                        :  STATE
 WELL.                Oredo 16:  WELL
 LOC .                        :  LOCATION
 LMF .                      KB:  LOG MEASURED FROM
 BAP .ft                0.0000:  GL ELEV ONSHORE
 GVFD.g                 1.0000:  GRAVITY FIELD
~Parameter Information Block
#MNEM.UNIT       Value        Description
#---------     -----------    ---------------------------
 BARI.                     OFF:  BARITE CORR 
 DCS .               25-Dec-19:  DateCircEndT 
 ENGI.          OLUCHI OHANEHI:  Engineer Name 
 IQVR.     WL INSITE R6.2.1 (Build 2):  WLIQ Version 
 LTYP.                     RAW:  LogDataType 
 RUN .                       3:  Run Number 
 SCT1.               26-Dec-19:  StartDateRun1 
 SVCN.     QUAD COMBO TOOLSTRING:  Service Name 
 SVCS.     RWCH, GTET, DSNT, SDLT, WSTT-I Receivers, ACRt Sonde:  Services 
 TCS .                   17 14:  Time Ciculation Ended 
 TDCE.ucts  17.14.51 25-Dec-19:  Time Circ End 
~Curve Information Block
#MNEM.UNIT                 API CODE     Curve Description
#---------               -----------    ---------------------------
 DEPT.ft                00 000 000 000:  Depth
 TENS.lbs               00 000 000 000:  Tension
 BHVT.ft3               00 000 000 000:  Borehole Volume
 AHVT.ft3               00 000 000 000:  Annular Volume
 DHTN.lbs               00 000 000 000:  CH Tension
 BITSIZE.in             00 000 000 000:  Bit Size
 GR  .api               00 000 000 000:  Gamma API
 CALI.in                00 000 000 000:  Caliper
 MMK .                  00 000 000 000:  Minute Mark
 RT10.ohmm              00 000 000 000:  10in Resistivity 2ft Res
 RT20.ohmm              00 000 000 000:  20in Resistivity 2ft Res
 RT30.ohmm              00 000 000 000:  30in Resistivity 2ft Res
 RT60.ohmm              00 000 000 000:  60in Resistivity 2ft Res
 RT90.ohmm              00 000 000 000:  90in Resistivity 2ft Res
 DRHO.g/cc              00 000 000 000:  DensityCorr
 PE  .                  00 000 000 000:  Pe
 RHOB.g/cc              00 000 000 000:  Density
 MDT .uspf              00 000 000 000:  MonoDeltaT
 NPHI.pu                00 000 000 000:  Neutron Porosity
 DXDT.uspf              00 000 000 000:  DipXDeltaT
 DYDT.uspf              00 000 000 000:  DipYDeltaT
#Other Information
#
#WARRANTY: Halliburton will use its best efforts to furnish customers with 
#accurate information and interpretations that are part of, and incident to, the services 
#provided.  However, Halliburton cannot and does not warrant the accuracy 
#or correctness of such information and interpretations.  Under no circumstances should any 
#such information or interpretation be relied upon as the sole basis for any drilling, 
#completion, production, or financial decision or any procedure involving any risk to the 
#safety of any drilling venture, drilling rig or its crew or any other third party.  The 
#Customer has full responsibility for all drilling, completion and production operation.  
#Halliburton makes no representations or warranties, either expressed or 
#implied, including, but not limited to, the implied warranties of merchantability or fitness 
#for a particular purpose, with respect to the services rendered.  In no event will 
#Halliburton be liable for failure to obtain any particular results or for 
#any damages, including, but not limited to, indirect, special or consequential damages, 
#resulting from the use of any information or interpretation provided by Halliburton.
#
~A    DEPT      TENS      BHVT      AHVT      DHTN    BITSIZE    GR     CALI    MMK     RT10      RT20      RT30      RT60      RT90     DRHO     PE     RHOB     MDT     NPHI     DXDT     DYDT   
# ...
    9290.5000 5432.7153 2626.9033 1025.1060 1934.8773 12.2500 102.4533 12.2513 0.0000    3.8686    3.8908    3.8835    3.8153    3.7832  0.0437  2.4099  2.5360  87.3040 35.7385 168.9886 171.6429
    9290.7500 5433.4258 2626.6987 1025.0276 1934.8773 12.2500 101.9378 12.2489 0.0000    3.8192    3.8365    3.8281    3.7618    3.7295  0.0430  2.4319  2.5338  87.3040 36.7660 168.9886 171.6429
    9291.0000 5434.9966 2626.4941 1024.9493 1937.5969 12.2500 102.7264 12.2547 0.0000    3.7622    3.7755    3.7662    3.7021    3.6696  0.0427  2.4624  2.5371  87.6376 36.8435 169.4544 172.3410
    9291.2500 5437.4663 2626.2893 1024.8708 1937.5969 12.2500 104.6216 12.2651 0.0000    3.7116    3.7231    3.7132    3.6512    3.6182  0.0438  2.4918  2.5444  87.6376 36.3455 169.4544 172.3410
    9291.5000 5437.6636 2626.0842 1024.7920 1938.6370 12.2500 105.1043 12.2738 0.0000    3.6840    3.6964    3.6865    3.6260    3.5922  0.0453  2.5099  2.5501  87.6376 37.5648 169.4544 172.3410
    9291.7500 5435.7227 2625.8789 1024.7129 1939.2568 12.2500 105.0007 12.2782 0.0000    3.6907    3.7071    3.6977    3.6379    3.6025  0.0469  2.5109  2.5562  87.4986 37.7518 170.2091 173.1670
    9292.0000 5433.5122 2625.6733 1024.6337 1939.2568 12.2500 103.4162 12.2798 0.0000    3.7354    3.7587    3.7504    3.6903    3.6523  0.0484  2.5080  2.5599  87.4986 36.6755 170.2091 173.1670
    9292.2500 5432.3916 2625.4678 1024.5543 1941.0166 12.2500 101.6976 12.2790 0.0000    3.8152    3.8469    3.8404    3.7792    3.7378  0.0482  2.4931  2.5598  86.6588 34.9857 170.5968 173.3652
    9292.5000 5432.6045 2625.2622 1024.4751 1941.0166 12.2500 101.1867 12.2681 0.0000    3.9219    3.9597    3.9552    3.8930    3.8473  0.0480  2.4856  2.5583  86.6588 35.0019 170.5968 173.3652
    9292.7500 5432.7002 2625.0569 1024.3962 1940.0166 12.2500  99.9625 12.2598 0.0000    4.0482    4.0730    4.0708    4.0082    3.9578  0.0482  2.4895  2.5507  86.0227 33.2279 170.2743 172.7002
    9293.0000 5432.6597 2624.8521 1024.3176 1940.0166 12.2500  99.9084 12.2535 0.0000    4.1496    4.1496    4.1494    4.0877    4.0332  0.0490  2.4872  2.5437  86.0227 32.6479 170.2743 172.7002
    9293.2500 5432.5337 2624.6472 1024.2393 1939.4769 12.2500 100.2333 12.2501 0.0000    4.1420    4.1523    4.1537    4.0939    4.0374  0.0501  2.4962  2.5390  86.0227 32.2599 170.2743 172.7002
    9293.5000 5432.1558 2624.4426 1024.1610 1940.4368 12.2500 101.6223 12.2636 0.0000    4.0419    4.0683    4.0706    4.0141    3.9577  0.0510  2.5010  2.5391  86.5925 34.3941 169.6693 171.8531
    9293.7500 5433.6709 2624.2375 1024.0823 1940.4368 12.2500 104.5275 12.2823 0.0000    3.8913    3.9239    3.9265    3.8742    3.8195  0.0519  2.5067  2.5457  86.5925 35.3024 169.6693 171.8531
    9294.0000 5434.1675 2624.0317 1024.0029 1939.5166 12.2500 106.3379 12.2827 0.0000    3.7384    3.7737    3.7767    3.7283    3.6757  0.0528  2.5167  2.5527  88.1570 35.5823 169.3988 171.6450
    9294.2500 5433.4185 2623.8259 1023.9236 1939.5166 12.2500 106.7758 12.2743 0.0000    3.6346    3.6732    3.6770    3.6315    3.5798  0.0545  2.5267  2.5559  88.1570 36.0109 169.3988 171.6450
    9294.5000 5434.0254 2623.6206 1023.8445 1939.4769 12.2500 106.8064 12.2626 0.0000    3.6100    3.6544    3.6600    3.6160    3.5630  0.0559  2.5395  2.5529  88.7726 37.8478 169.4364 172.3837
    9294.7500 5434.7285 2623.4155 1023.7657 1939.4769 12.2500 106.4862 12.2619 0.0000    3.6654    3.7194    3.7280    3.6841    3.6277  0.0564  2.5508  2.5423  88.7726 37.9392 169.4364 172.3837
    9295.0000 5435.4775 2623.2104 1023.6871 1940.5166 12.2500 105.9706 12.2571 0.0000    3.7762    3.8439    3.8568    3.8118    3.7507  0.0552  2.5713  2.5245  88.7726 37.8481 169.4364 172.3837
    9295.2500 5436.2437 2623.0056 1023.6085 1941.9365 12.2500 105.6293 12.2569 0.0000    3.9038    3.9874    4.0054    3.9586    3.8929  0.0526  2.5788  2.5115  87.5951 36.4680 169.2088 172.9672
    9295.5000 5436.9775 2622.8008 1023.5300 1941.9365 12.2500 103.9907 12.2594 0.0000    4.0122    4.1110    4.1344    4.0858    4.0161  0.0496  2.5628  2.5021  87.5951 35.7500 169.2088 172.9672
    9295.7500 5437.7344 2622.5959 1023.4514 1943.0365 12.2500 103.1549 12.2670 0.0000    4.0835    4.1948    4.2231    4.1728    4.1000  0.0462  2.5238  2.4988  85.5356 34.7218 168.1430 172.1074
    9296.0000 5439.2588 2622.3909 1023.3725 1943.0365 12.2500 102.8206 12.2735 0.0000    4.1198    4.2401    4.2728    4.2209    4.1460  0.0441  2.4483  2.5051  85.5356 34.3738 168.1430 172.1074
    9296.2500 5439.4390 2622.1855 1023.2934 1942.8766 12.2500 103.0042 12.2759 0.0000    4.1339    4.2602    4.2964    4.2429    4.1667  0.0414  2.3616  2.5079  84.1570 34.5481 166.0068 169.7459
    9296.5000 5438.5234 2621.9800 1023.2142 1942.8766 12.2500 102.7406 12.2783 0.0000    4.1357    4.2660    4.3049    4.2496    4.1728  0.0388  2.2834  2.5100  84.1570 32.9528 166.0068 169.7459
    9296.7500 5437.8145 2621.7744 1023.1350 1943.8167 12.2500 101.1255 12.2792 0.0000    4.1305    4.2629    4.3039    4.2466    4.1698  0.0369  2.2339  2.5088  84.1570 32.8122 166.0068 169.7459
    9297.0000 5437.1899 2621.5688 1023.0557 1945.3160 12.2500  99.9484 12.2685 0.0000    4.1222    4.2555    4.2977    4.2383    4.1618  0.0348  2.2154  2.5043  83.5301 32.7020 163.5131 167.1579
    9297.2500 5436.0850 2621.3635 1022.9768 1945.3160 12.2500  99.2774 12.2690 0.0000    4.1142    4.2477    4.2907    4.2288    4.1530  0.0344  2.2289  2.5017  83.5301 33.3712 163.5131 167.1579
    9297.5000 5435.2651 2621.1582 1022.8979 1944.6361 12.2500  99.5364 12.2702 0.0000    4.1080    4.2415    4.2846    4.2201    4.1452  0.0352  2.2645  2.5020  83.2093 33.0790 161.5679 165.0413
    9297.7500 5434.8379 2620.9529 1022.8189 1944.6361 12.2500 100.1132 12.2695 0.0000    4.1027    4.2367    4.2796    4.2124    4.1384  0.0361  2.2988  2.5045  83.2093 32.0548 161.5679 165.0413
    9298.0000 5434.4048 2620.7476 1022.7399 1945.0361 12.2500  99.9814 12.2698 0.0000    4.0972    4.2324    4.2747    4.2047    4.1318  0.0372  2.3483  2.5064  83.0904 30.8048 160.5463 163.5368
    9298.2500 5433.5830 2620.5422 1022.6609 1945.0361 12.2500  99.5176 12.2678 0.0000    4.0894    4.2267    4.2683    4.1955    4.1237  0.0389  2.3807  2.5088  83.0904 30.3261 160.5463 163.5368
    9298.5000 5433.0161 2620.3369 1022.5820 1945.0159 12.2500  99.0349 12.2663 0.0000    4.0783    4.2181    4.2586    4.1830    4.1125  0.0401  2.4036  2.5062  83.0904 30.1742 160.5463 163.5368
    9298.7500 5432.5503 2620.1318 1022.5032 1945.2559 12.2500  98.2533 12.2686 0.0000    4.0635    4.2055    4.2445    4.1663    4.0971  0.0413  2.4184  2.5045  83.2694 31.5286 160.0092 162.4898
    9299.0000 5431.3267 2619.9265 1022.4243 1945.2559 12.2500  96.5700 12.2679 0.0000    4.0455    4.1883    4.2254    4.1449    4.0772  0.0426  2.4089  2.5034  83.2694 31.7407 160.0092 162.4898
    9299.2500 5430.2061 2619.7212 1022.3453 1943.3962 12.2500  95.4235 12.2691 0.0000    4.0244    4.1656    4.2000    4.1175    4.0514  0.0423  2.4114  2.5013  83.6154 32.7039 159.8834 162.1376
    9299.5000 5430.4033 2619.5159 1022.2664 1943.3962 12.2500  94.2346 12.2727 0.0000    3.9978    4.1338    4.1646    4.0807    4.0165  0.0425  2.4090  2.5021  83.6154 32.5802 159.8834 162.1376
    9299.7500 5430.4663 2619.3105 1022.1874 1942.0365 12.2500  95.0327 12.2734 0.0000    3.9597    4.0861    4.1123    4.0277    3.9658  0.0427  2.4069  2.5013  84.2838 33.7231 160.8631 162.9362
    9300.0000 5431.2480 2619.1052 1022.1083 1938.0170 12.2500  96.3628 12.2737 0.0000    3.9002    4.0111    4.0314    3.9475    3.8884  0.0429  2.4147  2.4998  84.2838 32.6101 160.8631 162.9362
    9300.2500 5432.3359 2618.8999 1022.0292 1938.0170 12.2500  96.3723 12.2696 0.0000    3.8055    3.8939    3.9072    3.8256    3.7692  0.0435  2.4182  2.5010  84.2838 32.5939 160.8631 162.9362
    9300.5000 5432.7476 2618.6946 1021.9502 1746.8586 12.2500  96.3322 12.2708 0.0000    3.6698    3.7225    3.7284    3.6507    3.5977  0.0437  2.4320  2.5006  86.0615 32.4246 163.7297 165.0156
    9300.7500 5434.9800 2618.4893 1021.8712 1746.8586 12.2500  94.4653 12.2676 0.0000    3.4998    3.5008    3.4996    3.4268    3.3790  0.0441  2.4535  2.5020  86.0615 33.5106 163.7297 165.0156
