~Version Information
 VERS.                  2.0:   CWLS log ASCII Standard -VERSION 2.0
 WRAP.                   NO:   One line per depth step
~Well Information Block
#MNEM.UNIT     VALUE/NAME     DESCRIPTION
#---------     -----------    ---------------------------
 STRT.F              6550.0000: START DEPTH
 STOP.F             12465.0000: STOP DEPTH
 STEP.F                 0.2500: STEP DEPTH
 NULL.                 -999.25: NULL VALUE
 DMF .                      KB:  DRILL MEAS FROM
 PDAT.                      GL:  PERMANENT DATUM
 DATE.             25-Dec-2019:  DATE
 SVCO.             Halliburton:  SERVICECONAME
 HIDE.                        :  WELLNAMEOPERAT
 BASI.                   BACIA:  BASIN
 UWI .                     N/A:  UNIQUE WELL IDENTIFIER
 API .                     N/A:  API NUMBER
 RANG.                     N/A:  RANGE
 TOWN.                     N/A:  TOWNSHIP
 SECT.                     N/A:  SECTION
 SON .                     N/A:  JOB NUMBER
 CNTY.                        :  COUNTY
 COMP.                        :  COMPANY
 CTRY.                        :  COUNTRY
 FLD .                   Oredo:  FIELD
 PROV.                        :  PROVINCE
 SRVC.             Halliburton:  SERVICE COMPANY
 STAT.                        :  STATE
 WELL.                Oredo 16:  WELL
 LOC .                        :  LOCATION
 LMF .                      KB:  LOG MEASURED FROM
 BAP .ft                0.0000:  GL ELEV ONSHORE
 GVFD.g                 1.0000:  GRAVITY FIELD
~Parameter Information Block
#MNEM.UNIT       Value        Description
#---------     -----------    ---------------------------
 BARI.                     OFF:  BARITE CORR 
 DCS .               25-Dec-19:  DateCircEndT 
 ENGI.          OLUCHI OHANEHI:  Engineer Name 
 IQVR.     WL INSITE R6.2.1 (Build 2):  WLIQ Version 
 LTYP.                     RAW:  LogDataType 
 RUN .                       3:  Run Number 
 SCT1.               26-Dec-19:  StartDateRun1 
 SVCN.     QUAD COMBO TOOLSTRING:  Service Name 
 SVCS.     RWCH, GTET, DSNT, SDLT, WSTT-I Receivers, ACRt Sonde:  Services 
 TCS .                   17 14:  Time Ciculation Ended 
 TDCE.ucts  17.14.51 25-Dec-19:  Time Circ End 
~Curve Information Block
#MNEM.UNIT                 API CODE     Curve Description
#---------               -----------    ---------------------------
 DEPT.ft                00 000 000 000:  Depth
 TENS.lbs               00 000 000 000:  Tension
 BHVT.ft3               00 000 000 000:  Borehole Volume
 AHVT.ft3               00 000 000 000:  Annular Volume
 DHTN.lbs               00 000 000 000:  CH Tension
 BITSIZE.in             00 000 000 000:  Bit Size
 GR  .api               00 000 000 000:  Gamma API
 CALI.in                00 000 000 000:  Caliper
 MMK .                  00 000 000 000:  Minute Mark
 RT10.ohmm              00 000 000 000:  10in Resistivity 2ft Res
 RT20.ohmm              00 000 000 000:  20in Resistivity 2ft Res
 RT30.ohmm              00 000 000 000:  30in Resistivity 2ft Res
 RT60.ohmm              00 000 000 000:  60in Resistivity 2ft Res
 RT90.ohmm              00 000 000 000:  90in Resistivity 2ft Res
 DRHO.g/cc              00 000 000 000:  DensityCorr
 PE  .                  00 000 000 000:  Pe
 RHOB.g/cc              00 000 000 000:  Density
 MDT .uspf              00 000 000 000:  MonoDeltaT
 NPHI.pu                00 000 000 000:  Neutron Porosity
 DXDT.uspf              00 000 000 000:  DipXDeltaT
 DYDT.uspf              00 000 000 000:  DipYDeltaT
#Other Information
#
#WARRANTY: Halliburton will use its best efforts to furnish customers with 
#accurate information and interpretations that are part of, and incident to, the services 
#provided.  However, Halliburton cannot and does not warrant the accuracy 
#or correctness of such information and interpretations.  Under no circumstances should any 
#such information or interpretation be relied upon as the sole basis for any drilling, 
#completion, production, or financial decision or any procedure involving any risk to the 
#safety of any drilling venture, drilling rig or its crew or any other third party.  The 
#Customer has full responsibility for all drilling, completion and production operation.  
#Halliburton makes no representations or warranties, either expressed or 
#implied, including, but not limited to, the implied warranties of merchantability or fitness 
#for a particular purpose, with respect to the services rendered.  In no event will 
#Halliburton be liable for failure to obtain any particular results or for 
#any damages, including, but not limited to, indirect, special or consequential damages, 
#resulting from the use of any information or interpretation provided by Halliburton.
#
~A    DEPT      TENS      BHVT      AHVT      DHTN    BITSIZE    GR     CALI    MMK     RT10      RT20      RT30      RT60      RT90     DRHO     PE     RHOB     MDT     NPHI     DXDT     DYDT   
# ...
   11642.5000 6597.1279  686.8379  272.0625 2496.0938 12.2500  85.6250 12.5413 0.0000    2.8660    2.8424    2.8087    2.7356    2.7141  0.0257  2.5293  2.3349 117.8644 42.7755 257.4627 257.9178
   11642.7500 6598.5879  686.6234  271.9744 2506.0530 12.2500  86.0252 12.5443 0.0000    3.0668    3.0631    3.0352    2.9525    2.9288  0.0264  2.2922  2.2130 117.8644 51.4821 257.4627 257.9178
   11643.0000 6600.6719  686.4089  271.8861 2507.2524 12.2500  83.0824 12.5474 0.0000    3.4142    3.4440    3.4238    3.3225    3.2940  0.0278  2.0215  2.0605 121.7969 60.8848 263.7929 263.3656
   11643.2500 6600.4497  686.1942  271.7978 2507.2524 12.2500  78.2561 12.5477 0.0000    3.8967    3.9611    3.9514    3.8280    3.7919  0.0308  1.7515  1.9163 125.2992 60.8992 270.3401 269.3675
   11643.5000 6597.7119  685.9796  271.7094 2505.7930 12.2500  73.6417 12.5480 0.0000    4.4876    4.4896    4.4917    4.3521    4.3067  0.0348  1.5774  1.8258 125.2992 56.0825 270.3401 269.3675
   11643.7500 6593.8848  685.7648  271.6210 2511.7920 12.2500  70.0279 12.5515 0.0000    4.7431    4.8186    4.8298    4.6784    4.6320  0.0392  1.5211  1.7993 128.3163 53.2813 274.7505 274.4453
   11644.0000 6591.2798  685.5500  271.5325 2511.7920 12.2500  69.7336 12.5525 0.0000    4.7354    4.8270    4.8407    4.6883    4.6421  0.0412  1.5660  1.8350 128.3163 52.7817 274.7505 274.4453
   11644.2500 6590.2778  685.3351  271.4440 2510.8120 12.2500  71.9584 12.5554 0.0000    4.5564    4.6144    4.6236    4.4799    4.4325  0.0408  1.6974  1.9029 129.9136 50.4235 274.9700 276.2119
   11644.5000 6591.3906  685.1202  271.3554 2510.8120 12.2500  75.1249 12.5573 0.0000    4.3671    4.3675    4.3677    4.2355    4.1876  0.0395  1.8248  1.9649 129.3220 48.8549 270.6842 273.2331
   11644.7500 6593.7583  684.9052  271.2667 2501.3933 12.2500  78.7976 12.5589 0.0000    4.1105    4.1860    4.1751    4.0518    4.0044  0.0371  1.9346  2.0194 129.3220 44.7109 270.6842 273.2331
   11645.0000 6594.4365  684.6901  271.1779 2496.7336 12.2500  82.8352 12.5588 0.0000    3.9690    4.0493    4.0263    3.9107    3.8627  0.0386  2.0454  2.0751 125.6725 42.1587 257.2173 262.9096
   11645.2500 6594.3887  684.4750  271.0892 2496.7336 12.2500  86.0252 12.5585 0.0000    3.8287    3.8851    3.8503    3.7434    3.6953  0.0436  2.1785  2.1573 125.6725 40.0626 257.2173 262.9096
   11645.5000 6593.6875  684.2599  271.0005 2502.9314 12.2500  87.6261 12.5587 0.0000    3.6337    3.6616    3.6160    3.5213    3.4746  0.0487  2.3814  2.2702 114.1498 35.0799 237.0363 250.3432
   11645.7500 6591.2720  684.0449  270.9117 2502.9314 12.2500  89.8156 12.5595 0.0000    3.4082    3.4096    3.3566    3.2752    3.2310  0.0522  2.6147  2.3909 105.7695 30.6136 228.3600 241.6919
   11646.0000 6587.0962  683.8298  270.8229 2504.6528 12.2500  90.6514 12.5595 0.0000    3.1936    3.1738    3.1171    3.0471    3.0054  0.0521  2.8354  2.4923 105.7695 27.4391 228.3600 241.6919
   11646.2500 6583.8760  683.6147  270.7342 2507.9524 12.2500  92.3111 12.5602 0.0000    3.0117    2.9778    2.9194    2.8582    2.8185  0.0522  3.0017  2.5595 100.5138 27.9046 210.8555 194.8548
   11646.5000 6583.4185  683.3996  270.6454 2507.9524 12.2500  92.9303 12.5634 0.0000    2.8695    2.8276    2.7685    2.7138    2.6753  0.0549  3.0895  2.5967 100.5138 28.5271 210.8555 194.8548
   11646.7500 6584.3662  682.9689  270.4673 2498.8135 12.2500  90.4536 12.5717 0.0000    2.7024    2.6570    2.5975    2.5503    2.5120  0.0635  3.0813  2.6122  96.9048 29.8234 197.8391 192.1874
   11647.0000 6584.1138  682.7534  270.3781 2498.8135 12.2500  87.9322 12.5713 0.0000    2.6697    2.6261    2.5666    2.5211    2.4818  0.0624  3.0261  2.6026  93.6034 29.6734 190.7573 190.3133
   11647.2500 6582.7881  682.5378  270.2889 2491.0742 12.2500  86.4772 12.5724 0.0000    2.6665    2.6264    2.5670    2.5221    2.4812  0.0561  2.9494  2.5861  93.6034 29.6456 190.7573 190.3133
   11647.5000 6583.8223  682.3223  270.1997 2492.2341 12.2500  86.3148 12.5707 0.0000    2.6908    2.6557    2.5964    2.5511    2.5080  0.0487  2.8820  2.5738  91.4637 28.8958 179.0057 187.2714
   11647.7500 6585.0679  682.1069  270.1106 2492.2341 12.2500  88.1888 12.5719 0.0000    2.7392    2.7108    2.6518    2.6052    2.5592  0.0420  2.8382  2.5669  90.6637 28.1727 172.4845 182.5008
   11648.0000 6586.2207  681.8914  270.0214 2490.2747 12.2500  92.4171 12.5562 0.0000    2.8073    2.7874    2.7292    2.6803    2.6309  0.0384  2.8200  2.5689  90.6637 27.7553 172.4845 182.5008
   11648.2500 6587.9253  681.6764  269.9327 2489.2146 12.2500  96.4782 12.5478 0.0000    2.8900    2.8806    2.8238    2.7719    2.7186  0.0370  2.8391  2.5731  90.2540 25.9538 167.0808 176.8837
   11648.5000 6589.2202  681.4617  269.8443 2489.2146 12.2500  98.7265 12.5450 0.0000    2.9812    2.9837    2.9291    2.8735    2.8163  0.0358  2.8603  2.5767  90.2540 25.6698 167.0808 176.8837
   11648.7500 6589.5981  681.2471  269.7560 2490.3743 12.2500  97.9732 12.5440 0.0000    3.0727    3.0877    3.0366    2.9767    2.9157  0.0336  2.8801  2.5775  89.5276 25.8264 162.1420 172.2600
   11649.0000 6588.0996  681.0326  269.6678 2490.3743 12.2500  94.8067 12.5455 0.0000    3.1570    3.1838    3.1373    3.0728    3.0087  0.0311  2.8913  2.5768  88.4719 27.7593 159.7527 169.5811
   11649.2500 6585.7783  680.8180  269.5795 2493.5742 12.2500  92.3535 12.5749 0.0000    3.2289    3.2659    3.2244    3.1553    3.0891  0.0292  2.8828  2.5774  88.4719 28.0053 159.7527 169.5811
   11649.5000 6586.1899  680.6024  269.4902 2497.9937 12.2500  91.3247 12.6023 0.0000    3.2857    3.3302    3.2937    3.2203    3.1530  0.0266  2.8768  2.5790  87.8366 27.5818 159.6481 168.1714
   11649.7500 6589.6304  680.3858  269.4000 2497.9937 12.2500  91.6849 12.6281 0.0000    3.3245    3.3732    3.3412    3.2639    3.1969  0.0252  2.8418  2.5806  87.8366 26.6150 159.6481 168.1714
   11650.0000 6590.4194  680.1683  269.3089 2492.8342 12.2500  92.3111 12.6180 0.0000    3.3430    3.3926    3.3648    3.2839    3.2185  0.0245  2.7930  2.5851  87.8866 27.2803 161.6491 167.1609
   11650.2500 6590.1514  679.9512  269.2181 2492.8342 12.2500  91.5860 12.6167 0.0000    3.3450    3.3931    3.3686    3.2847    3.2219  0.0244  2.7332  2.5934  88.3308 27.9559 165.3001 166.2249
   11650.5000 6593.5840  679.7342  269.1273 2492.6543 12.2500  90.4489 12.6274 0.0000    3.3369    3.3817    3.3600    3.2732    3.2137  0.0261  2.6802  2.5999  88.3308 27.8181 165.3001 166.2249
   11650.7500 6599.3369  679.5168  269.0363 2496.3337 12.2500  88.7585 12.6383 0.0000    3.3200    3.3607    3.3411    3.2518    3.1960  0.0286  2.6648  2.6046  88.3077 27.1714 167.3741 165.2204
   11651.0000 6603.3462  679.2990  268.9448 2496.3337 12.2500  88.4266 12.6386 0.0000    3.2959    3.3325    3.3143    3.2231    3.1711  0.0313  2.6697  2.6048  88.3077 26.3914 167.3741 165.2204
   11651.2500 6604.7041  679.0812  268.8533 2493.6343 12.2500  88.8621 12.6454 0.0000    3.2725    3.3058    3.2886    3.1954    3.1471  0.0337  2.7140  2.5990  87.4565 27.3306 167.2175 164.1727
   11651.5000 6605.0757  678.8632  268.7616 2493.6343 12.2500  89.2859 12.6401 0.0000    3.2565    3.2876    3.2709    3.1756    3.1308  0.0368  2.7540  2.5946  86.5810 27.5288 166.9178 163.2837
   11651.7500 6604.4282  678.6453  268.6700 2504.4929 12.2500  88.8857 12.6415 0.0000    3.2460    3.2759    3.2593    3.1617    3.1199  0.0400  2.7945  2.5976  86.5810 27.6850 166.9178 163.2837
   11652.0000 6603.1489  678.4274  268.5785 2508.9126 12.2500  87.2612 12.6456 0.0000    3.2332    3.2627    3.2456    3.1459    3.1072  0.0441  2.8361  2.6037  86.2405 26.9166 167.7868 163.3768
   11652.2500 6600.2695  678.2094  268.4867 2508.9126 12.2500  86.4254 12.6424 0.0000    3.2133    3.2426    3.2245    3.1234    3.0876  0.0487  2.8585  2.6143  86.5516 26.8778 170.0755 164.5454
   11652.5000 6596.8599  677.9915  268.3951 2512.3120 12.2500  86.3195 12.6411 0.0000    3.1887    3.2180    3.1984    3.0963    3.0633  0.0523  2.9046  2.6293  86.5516 27.4204 170.0755 164.5454
   11652.7500 6594.4043  677.7736  268.3035 2512.3120 12.2500  86.6491 12.6473 0.0000    3.1670    3.1965    3.1748    3.0717    3.0411  0.0550  2.9583  2.6405  87.2195 28.2375 172.3527 165.3226
