~Version Information
 VERS.                  2.0:   CWLS log ASCII Standard -VERSION 2.0
 WRAP.                   NO:   One line per depth step
~Well Information Block
#MNEM.UNIT     VALUE/NAME     DESCRIPTION
#---------     -----------    ---------------------------
 STRT.F              6550.0000: START DEPTH
 STOP.F             12465.0000: STOP DEPTH
 STEP.F                 0.2500: STEP DEPTH
 NULL.                 -999.25: NULL VALUE
 DMF .                      KB:  DRILL MEAS FROM
 PDAT.                      GL:  PERMANENT DATUM
 DATE.             25-Dec-2019:  DATE
 SVCO.             Halliburton:  SERVICECONAME
 HIDE.                        :  WELLNAMEOPERAT
 BASI.                   BACIA:  BASIN
 UWI .                     N/A:  UNIQUE WELL IDENTIFIER
 API .                     N/A:  API NUMBER
 RANG.                     N/A:  RANGE
 TOWN.                     N/A:  TOWNSHIP
 SECT.                     N/A:  SECTION
 SON .                     N/A:  JOB NUMBER
 CNTY.                        :  COUNTY
 COMP.                        :  COMPANY
 CTRY.                        :  COUNTRY
 FLD .                   Oredo:  FIELD
 PROV.                        :  PROVINCE
 SRVC.             Halliburton:  SERVICE COMPANY
 STAT.                        :  STATE
 WELL.                Oredo 16:  WELL
 LOC .                        :  LOCATION
 LMF .                      KB:  LOG MEASURED FROM
 BAP .ft                0.0000:  GL ELEV ONSHORE
 GVFD.g                 1.0000:  GRAVITY FIELD
~Parameter Information Block
#MNEM.UNIT       Value        Description
#---------     -----------    ---------------------------
 BARI.                     OFF:  BARITE CORR 
 DCS .               25-Dec-19:  DateCircEndT 
 ENGI.          OLUCHI OHANEHI:  Engineer Name 
 IQVR.     WL INSITE R6.2.1 (Build 2):  WLIQ Version 
 LTYP.                     RAW:  LogDataType 
 RUN .                       3:  Run Number 
 SCT1.               26-Dec-19:  StartDateRun1 
 SVCN.     QUAD COMBO TOOLSTRING:  Service Name 
 SVCS.     RWCH, GTET, DSNT, SDLT, WSTT-I Receivers, ACRt Sonde:  Services 
 TCS .                   17 14:  Time Ciculation Ended 
 TDCE.ucts  17.14.51 25-Dec-19:  Time Circ End 
~Curve Information Block
#MNEM.UNIT                 API CODE     Curve Description
#---------               -----------    ---------------------------
 DEPT.ft                00 000 000 000:  Depth
 TENS.lbs               00 000 000 000:  Tension
 BHVT.ft3               00 000 000 000:  Borehole Volume
 AHVT.ft3               00 000 000 000:  Annular Volume
 DHTN.lbs               00 000 000 000:  CH Tension
 BITSIZE.in             00 000 000 000:  Bit Size
 GR  .api               00 000 000 000:  Gamma API
 CALI.in                00 000 000 000:  Caliper
 MMK .                  00 000 000 000:  Minute Mark
 RT10.ohmm              00 000 000 000:  10in Resistivity 2ft Res
 RT20.ohmm              00 000 000 000:  20in Resistivity 2ft Res
 RT30.ohmm              00 000 000 000:  30in Resistivity 2ft Res
 RT60.ohmm              00 000 000 000:  60in Resistivity 2ft Res
 RT90.ohmm              00 000 000 000:  90in Resistivity 2ft Res
 DRHO.g/cc              00 000 000 000:  DensityCorr
 PE  .                  00 000 000 000:  Pe
 RHOB.g/cc              00 000 000 000:  Density
 MDT .uspf              00 000 000 000:  MonoDeltaT
 NPHI.pu                00 000 000 000:  Neutron Porosity
 DXDT.uspf              00 000 000 000:  DipXDeltaT
 DYDT.uspf              00 000 000 000:  DipYDeltaT
#Other Information
#
#WARRANTY: Halliburton will use its best efforts to furnish customers with 
#accurate information and interpretations that are part of, and incident to, the services 
#provided.  However, Halliburton cannot and does not warrant the accuracy 
#or correctness of such information and interpretations.  Under no circumstances should any 
#such information or interpretation be relied upon as the sole basis for any drilling, 
#completion, production, or financial decision or any procedure involving any risk to the 
#safety of any drilling venture, drilling rig or its crew or any other third party.  The 
#Customer has full responsibility for all drilling, completion and production operation.  
#Halliburton makes no representations or warranties, either expressed or 
#implied, including, but not limited to, the implied warranties of merchantability or fitness 
#for a particular purpose, with respect to the services rendered.  In no event will 
#Halliburton be liable for failure to obtain any particular results or for 
#any damages, including, but not limited to, indirect, special or consequential damages, 
#resulting from the use of any information or interpretation provided by Halliburton.
#
~A    DEPT      TENS      BHVT      AHVT      DHTN    BITSIZE    GR     CALI    MMK     RT10      RT20      RT30      RT60      RT90     DRHO     PE     RHOB     MDT     NPHI     DXDT     DYDT   
# ...
   12041.5000 6812.8125  345.6726  133.3865 2577.5447 12.2500 108.1154 12.5024 0.0000    2.7008    2.6317    2.5638    2.4964    2.4845  0.0507  2.7949  2.6085  96.1955 34.3572 200.5511 203.3930
   12041.7500 6808.1328  345.4594  133.2997 2579.5842 12.2500 107.8941 12.5050 0.0000    2.7985    2.7344    2.6673    2.5974    2.5846  0.0517  2.8118  2.6198  96.1955 33.9008 200.5511 203.3930
   12042.0000 6799.9248  345.2462  133.2128 2579.5842 12.2500 105.1576 12.5106 0.0000    2.9345    2.8788    2.8124    2.7380    2.7241  0.0527  2.8089  2.6271  95.0019 32.8705 200.7324 201.2634
   12042.2500 6791.7490  345.0328  133.1257 2578.5842 12.2500 102.5593 12.5077 0.0000    3.1051    3.0617    2.9962    2.9153    2.9000  0.0518  2.8008  2.6278  94.0415 33.3876 198.7106 199.9150
   12042.5000 6784.5747  344.8195  133.0387 2581.5642 12.2500 100.8148 12.5303 0.0000    3.2940    3.2666    3.2029    3.1142    3.0974  0.0522  2.7802  2.6248  94.0415 33.8428 198.7106 199.9150
   12042.7500 6777.7246  344.6054  132.9509 2581.5642 12.2500 100.5534 12.5674 0.0000    3.4805    3.4711    3.4107    3.3138    3.2956  0.0530  2.7488  2.6180  93.4647 34.1061 194.1613 198.9135
   12043.0000 6771.7271  344.3900  132.8619 2563.8862 12.2500 101.2338 12.5849 0.0000    3.6523    3.6599    3.6043    3.4997    3.4803  0.0527  2.7239  2.6121  93.4647 33.7430 194.1613 198.9135
   12043.2500 6771.5127  344.1741  132.7722 2558.8064 12.2500 101.1554 12.5667 0.0000    3.8032    3.8243    3.7738    3.6622    3.6420  0.0533  2.6953  2.6078  92.8931 31.5762 190.1874 197.4276
   12043.5000 6773.1865  343.9588  132.6832 2558.8064 12.2500 102.4267 12.4952 0.0000    3.9228    3.9515    3.9051    3.7881    3.7675  0.0529  2.6756  2.6050  91.9545 31.5679 189.1922 195.0275
   12043.7500 6773.6367  343.7459  132.5966 2543.3484 12.2500 102.7947 12.4420 0.0000    3.9957    4.0244    3.9804    3.8603    3.8398  0.0511  2.6806  2.5991  91.9545 29.7372 189.1922 195.0275
   12044.0000 6776.5640  343.5348  132.5119 2543.3484 12.2500 102.8583 12.4189 0.0000    4.0116    4.0321    3.9884    3.8684    3.8485  0.0493  2.6948  2.5927  91.0923 30.2074 191.2627 191.6388
   12044.2500 6782.3184  343.3245  132.4279 2538.4692 12.2500 101.6152 12.4238 0.0000    3.9740    3.9801    3.9352    3.8182    3.7992  0.0466  2.7181  2.5854  91.0923 29.5200 191.2627 191.6388
   12044.5000 6790.6128  343.1140  132.3438 2534.7493 12.2500  99.6070 12.4840 0.0000    3.8989    3.8872    3.8403    3.7281    3.7102  0.0440  2.7334  2.5795  91.0196 29.8412 195.3014 188.7498
   12044.7500 6797.7236  342.9016  132.2576 2534.7493 12.2500  98.5429 12.5257 0.0000    3.8036    3.7737    3.7249    3.6183    3.6014  0.0422  2.7326  2.5780  91.7891 29.6423 199.2126 187.7659
   12045.0000 6796.1602  342.6876  132.1700 2533.3296 12.2500  98.7854 12.5389 0.0000    3.7044    3.6590    3.6081    3.5067    3.4905  0.0408  2.7234  2.5766  91.7891 30.7362 199.2126 187.7659
   12045.2500 6789.8237  342.4732  132.0819 2533.3296 12.2500 100.8995 12.5605 0.0000    3.6170    3.5601    3.5068    3.4096    3.3938  0.0391  2.7140  2.5766  92.7436 31.7344 201.5064 188.3093
   12045.5000 6784.1323  342.2581  131.9931 2546.9680 12.2500 103.1643 12.5744 0.0000    3.5533    3.4886    3.4326    3.3379    3.3222  0.0381  2.7116  2.5751  92.7436 32.6039 201.5064 188.3093
   12045.7500 6779.7686  342.0425  131.9038 2568.2253 12.2500 104.3085 12.5747 0.0000    3.5179    3.4490    3.3897    3.2958    3.2797  0.0364  2.7083  2.5706  93.4071 32.5855 202.7128 189.4130
   12046.0000 6774.0947  341.8269  131.8145 2568.2253 12.2500 104.8924 12.5671 0.0000    3.5088    3.4384    3.3751    3.2804    3.2635  0.0354  2.7120  2.5719  93.9830 33.6469 203.2379 190.1783
   12046.2500 6771.2061  341.6116  131.7255 2555.7671 12.2500 102.8041 12.5666 0.0000    3.5160    3.4464    3.3785    3.2820    3.2639  0.0361  2.7329  2.5767  93.9830 32.4750 203.2379 190.1783
   12046.5000 6774.8286  341.3962  131.6365 2555.7671 12.2500 101.3162 12.5937 0.0000    3.5244    3.4568    3.3842    3.2856    3.2663  0.0372  2.7668  2.5872  94.4694 31.5628 202.9547 190.4084
   12046.7500 6782.6421  341.1800  131.5466 2552.3074 12.2500  99.0655 12.6058 0.0000    3.5202    3.4550    3.3779    3.2777    3.2571  0.0397  2.8222  2.6039  94.4694 31.2620 202.9547 190.4084
   12047.0000 6788.5518  340.9633  131.4562 2530.8696 12.2500  97.4105 12.5937 0.0000    3.4988    3.4349    3.3537    3.2529    3.2312  0.0412  2.8584  2.6135  94.8817 31.5149 202.2467 190.3090
   12047.2500 6790.8257  340.7471  131.3663 2530.8696 12.2500  96.1203 12.5579 0.0000    3.4639    3.3994    3.3145    3.2139    3.1911  0.0423  2.8539  2.6186  95.2327 31.3425 202.2761 190.0756
   12047.5000 6790.7544  340.5320  131.2776 2531.3894 12.2500  93.7355 12.4962 0.0000    3.4208    3.3530    3.2646    3.1647    3.1411  0.0429  2.8220  2.6166  95.2327 30.7534 202.2761 190.0756
   12047.7500 6793.0742  340.3191  131.1909 2531.3894 12.2500  91.5695 12.4603 0.0000    3.3699    3.2965    3.2051    3.1063    3.0820  0.0429  2.7717  2.6110  95.3899 32.3781 203.3284 190.1585
   12048.0000 6799.4512  340.1074  131.1056 2549.8877 12.2500  90.7903 12.4508 0.0000    3.3069    3.2264    3.1329    3.0361    3.0113  0.0443  2.7477  2.6126  95.3899 33.3781 203.3284 190.1585
   12048.2500 6808.1250  339.8961  131.0205 2550.6877 12.2500  91.5130 12.4720 0.0000    3.2262    3.1388    3.0448    2.9510    2.9262  0.0460  2.7598  2.6194  95.5063 33.3155 204.6205 190.6127
   12048.5000 6811.3374  339.6840  130.9347 2550.6877 12.2500  93.1469 12.5113 0.0000    3.1303    3.0377    2.9449    2.8549    2.8304  0.0478  2.7886  2.6284  95.8960 31.9352 205.4984 191.4317
   12048.7500 6808.9468  339.4705  130.8476 2548.1279 12.2500  94.1828 12.5510 0.0000    3.0327    2.9377    2.8471    2.7610    2.7370  0.0504  2.8037  2.6328  95.8960 32.7840 205.4984 191.4317
   12049.0000 6812.1743  339.2557  130.7591 2570.8452 12.2500  94.3335 12.5867 0.0000    2.9527    2.8576    2.7692    2.6861    2.6624  0.0521  2.7948  2.6286  96.4211 33.5246 205.9208 192.8411
   12049.2500 6818.3447  339.0397  130.6694 2570.8452 12.2500  94.3868 12.6005 0.0000    2.9067    2.8131    2.7258    2.6440    2.6201  0.0521  2.7553  2.6166  96.4211 35.2629 205.9208 192.8411
   12049.5000 6819.8525  338.8232  130.5793 2568.4856 12.2500  94.1161 12.6039 0.0000    2.9048    2.8130    2.7253    2.6424    2.6177  0.0521  2.7010  2.6053  96.5436 35.9671 206.2982 194.6474
   12049.7500 6821.7544  338.6066  130.4890 2568.4856 12.2500  96.1054 12.6007 0.0000    2.9478    2.8576    2.7675    2.6813    2.6551  0.0503  2.6531  2.5982  96.2064 36.6443 206.7176 195.9721
   12050.0000 6823.7520  338.3901  130.3988 2568.6055 12.2500  98.0524 12.5923 0.0000    3.0266    2.9372    2.8433    2.7519    2.7237  0.0485  2.6087  2.5975  96.2064 36.1327 206.7176 195.9721
   12050.2500 6823.0723  338.1739  130.3089 2575.4648 12.2500  99.5905 12.5944 0.0000    3.1244    3.0355    2.9371    2.8397    2.8090  0.0459  2.5836  2.6002  95.9181 33.4811 206.7380 196.2389
   12050.5000 6820.1763  337.9576  130.2189 2575.4648 12.2500 101.0926 12.5897 0.0000    3.2236    3.1351    3.0328    2.9294    2.8962  0.0425  2.5637  2.6041  95.9181 32.7928 206.7380 196.2389
   12050.7500 6815.4023  337.7415  130.1291 2582.4236 12.2500 100.7936 12.5698 0.0000    3.3124    3.2247    3.1194    3.0109    2.9754  0.0394  2.5591  2.6086  95.8607 31.7368 205.6172 195.3616
   12051.0000 6811.7627  337.5261  130.0400 2582.4236 12.2500 101.8601 12.5233 0.0000    3.3868    3.3000    3.1932    3.0810    3.0434  0.0349  2.5704  2.6088  95.6753 32.3805 202.8345 194.0814
   12051.2500 6810.9028  337.3122  129.9525 2589.3433 12.2500 103.5481 12.4793 0.0000    3.4480    3.3619    3.2547    3.1402    3.1009  0.0320  2.5794  2.6105  95.6753 31.3528 202.8345 194.0814
   12051.5000 6808.5430  337.0999  129.8665 2581.0042 12.2500 105.1419 12.4626 0.0000    3.4996    3.4133    3.3068    3.1910    3.1503  0.0305  2.6082  2.6102  94.9732 30.6970 198.5920 192.6506
   12051.7500 6804.1387  336.8881  129.7810 2581.0042 12.2500 107.9953 12.4628 0.0000    3.5463    3.4585    3.3532    3.2371    3.1952  0.0302  2.6394  2.6095  93.7323 30.6461 193.9409 190.7076
