~Version Information
 VERS.                  2.0:   CWLS log ASCII Standard -VERSION 2.0
 WRAP.                   NO:   One line per depth step
~Well Information Block
#MNEM.UNIT     VALUE/NAME     DESCRIPTION
#---------     -----------    ---------------------------
 STRT.F              6550.0000: START DEPTH
 STOP.F             12465.0000: STOP DEPTH
 STEP.F                 0.2500: STEP DEPTH
 NULL.                 -999.25: NULL VALUE
 DMF .                      KB:  DRILL MEAS FROM
 PDAT.                      GL:  PERMANENT DATUM
 DATE.             25-Dec-2019:  DATE
 SVCO.             Halliburton:  SERVICECONAME
 HIDE.                        :  WELLNAMEOPERAT
 BASI.                   BACIA:  BASIN
 UWI .                     N/A:  UNIQUE WELL IDENTIFIER
 API .                     N/A:  API NUMBER
 RANG.                     N/A:  RANGE
 TOWN.                     N/A:  TOWNSHIP
 SECT.                     N/A:  SECTION
 SON .                     N/A:  JOB NUMBER
 CNTY.                        :  COUNTY
 COMP.                        :  COMPANY
 CTRY.                        :  COUNTRY
 FLD .                   Oredo:  FIELD
 PROV.                        :  PROVINCE
 SRVC.             Halliburton:  SERVICE COMPANY
 STAT.                        :  STATE
 WELL.                Oredo 16:  WELL
 LOC .                        :  LOCATION
 LMF .                      KB:  LOG MEASURED FROM
 BAP .ft                0.0000:  GL ELEV ONSHORE
 GVFD.g                 1.0000:  GRAVITY FIELD
~Parameter Information Block
#MNEM.UNIT       Value        Description
#---------     -----------    ---------------------------
 BARI.                     OFF:  BARITE CORR 
 DCS .               25-Dec-19:  DateCircEndT 
 ENGI.          OLUCHI OHANEHI:  Engineer Name 
 IQVR.     WL INSITE R6.2.1 (Build 2):  WLIQ Version 
 LTYP.                     RAW:  LogDataType 
 RUN .                       3:  Run Number 
 SCT1.               26-Dec-19:  StartDateRun1 
 SVCN.     QUAD COMBO TOOLSTRING:  Service Name 
 SVCS.     RWCH, GTET, DSNT, SDLT, WSTT-I Receivers, ACRt Sonde:  Services 
 TCS .                   17 14:  Time Ciculation Ended 
 TDCE.ucts  17.14.51 25-Dec-19:  Time Circ End 
~Curve Information Block
#MNEM.UNIT                 API CODE     Curve Description
#---------               -----------    ---------------------------
 DEPT.ft                00 000 000 000:  Depth
 TENS.lbs               00 000 000 000:  Tension
 BHVT.ft3               00 000 000 000:  Borehole Volume
 AHVT.ft3               00 000 000 000:  Annular Volume
 DHTN.lbs               00 000 000 000:  CH Tension
 BITSIZE.in             00 000 000 000:  Bit Size
 GR  .api               00 000 000 000:  Gamma API
 CALI.in                00 000 000 000:  Caliper
 MMK .                  00 000 000 000:  Minute Mark
 RT10.ohmm              00 000 000 000:  10in Resistivity 2ft Res
 RT20.ohmm              00 000 000 000:  20in Resistivity 2ft Res
 RT30.ohmm              00 000 000 000:  30in Resistivity 2ft Res
 RT60.ohmm              00 000 000 000:  60in Resistivity 2ft Res
 RT90.ohmm              00 000 000 000:  90in Resistivity 2ft Res
 DRHO.g/cc              00 000 000 000:  DensityCorr
 PE  .                  00 000 000 000:  Pe
 RHOB.g/cc              00 000 000 000:  Density
 MDT .uspf              00 000 000 000:  MonoDeltaT
 NPHI.pu                00 000 000 000:  Neutron Porosity
 DXDT.uspf              00 000 000 000:  DipXDeltaT
 DYDT.uspf              00 000 000 000:  DipYDeltaT
#Other Information
#
#WARRANTY: Halliburton will use its best efforts to furnish customers with 
#accurate information and interpretations that are part of, and incident to, the services 
#provided.  However, Halliburton cannot and does not warrant the accuracy 
#or correctness of such information and interpretations.  Under no circumstances should any 
#such information or interpretation be relied upon as the sole basis for any drilling, 
#completion, production, or financial decision or any procedure involving any risk to the 
#safety of any drilling venture, drilling rig or its crew or any other third party.  The 
#Customer has full responsibility for all drilling, completion and production operation.  
#Halliburton makes no representations or warranties, either expressed or 
#implied, including, but not limited to, the implied warranties of merchantability or fitness 
#for a particular purpose, with respect to the services rendered.  In no event will 
#Halliburton be liable for failure to obtain any particular results or for 
#any damages, including, but not limited to, indirect, special or consequential damages, 
#resulting from the use of any information or interpretation provided by Halliburton.
#
~A    DEPT      TENS      BHVT      AHVT      DHTN    BITSIZE    GR     CALI    MMK     RT10      RT20      RT30      RT60      RT90     DRHO     PE     RHOB     MDT     NPHI     DXDT     DYDT   
# ...
   11254.0000 6295.5049 1014.2780  404.0874 2437.6001 12.2500 103.0035 12.4679 0.0000    4.9207    4.8842    4.8540    4.7681    4.7114  0.0387  2.7670  2.5817  83.8781 29.1412 153.6969 155.8600
   11254.2500 6288.4575 1014.0660  404.0018 2425.1421 12.2500  99.1542 12.4700 0.0000    5.1350    5.1153    5.0888    4.9962    4.9336  0.0410  2.7970  2.5884  83.8781 28.6387 153.6969 155.8600
   11254.5000 6283.4370 1013.8539  403.9160 2425.1421 12.2500  96.9647 12.4670 0.0000    5.4005    5.4031    5.3806    5.2794    5.2089  0.0427  2.8148  2.5905  83.6971 27.9267 153.3932 155.1185
   11254.7500 6283.9102 1013.6420  403.8304 2408.3237 12.2500  96.2820 12.4672 0.0000    5.6705    5.6974    5.6802    5.5702    5.4911  0.0435  2.7994  2.5937  83.6971 26.4694 153.3932 155.1185
   11255.0000 6286.1128 1013.4301  403.7448 2408.3237 12.2500  95.7994 12.4663 0.0000    5.8967    5.9453    5.9328    5.8168    5.7300  0.0429  2.7948  2.5982  83.2663 25.2069 152.4900 153.0510
   11255.2500 6288.4961 1013.2182  403.6593 2394.4854 12.2500  95.6228 12.4653 0.0000    6.0396    6.1001    6.0916    5.9731    5.8807  0.0423  2.7603  2.5980  83.2663 24.4245 152.4900 153.0510
   11255.5000 6290.0977 1013.0063  403.5737 2386.1064 12.2500  95.0225 12.4658 0.0000    6.0804    6.1382    6.1324    6.0146    5.9199  0.0419  2.7386  2.6004  82.4744 24.1141 150.9783 151.2405
   11255.7500 6291.7314 1012.7944  403.4882 2386.1064 12.2500  95.4776 12.4657 0.0000    6.0345    6.0802    6.0761    5.9611    5.8669  0.0428  2.7422  2.6018  81.5483 22.9535 149.0714 149.7787
   11256.0000 6292.0317 1012.5825  403.4026 2391.5254 12.2500  96.6038 12.4739 0.0000    5.9463    5.9817    5.9784    5.8670    5.7745  0.0434  2.7510  2.6004  81.5483 23.1365 149.0714 149.7787
   11256.2500 6292.0244 1012.3704  403.3167 2391.5254 12.2500  98.4283 12.4753 0.0000    5.8644    5.8947    5.8918    5.7835    5.6923  0.0429  2.7773  2.6012  81.0275 22.8564 147.3358 148.2551
   11256.5000 6292.1582 1012.1581  403.2308 2393.4451 12.2500  99.8291 12.4727 0.0000    5.8178    5.8445    5.8419    5.7354    5.6443  0.0412  2.8028  2.6012  81.0275 22.9758 147.3358 148.2551
   11256.7500 6294.4307 1011.9460  403.1450 2393.4451 12.2500  98.9149 12.4746 0.0000    5.8100    5.8307    5.8284    5.7225    5.6303  0.0392  2.8174  2.6001  80.8821 22.7831 145.6250 146.8941
   11257.0000 6297.1294 1011.7339  403.0591 2395.3650 12.2500  97.4121 12.4756 0.0000    5.8290    5.8384    5.8367    5.7306    5.6365  0.0380  2.8205  2.5995  80.8606 23.2844 144.4064 146.3364
   11257.2500 6300.8149 1011.5217  402.9732 2390.7256 12.2500  94.9636 12.4763 0.0000    5.8502    5.8499    5.8491    5.7424    5.6462  0.0366  2.8155  2.5941  80.8606 23.5280 144.4064 146.3364
   11257.5000 6303.3169 1011.3094  402.8873 2390.7256 12.2500  92.6211 12.4826 0.0000    5.8487    5.8490    5.8490    5.7419    5.6437  0.0362  2.7972  2.5866  80.8407 23.3208 143.6062 146.1515
   11257.7500 6301.1387 1011.0970  402.8011 2392.6450 12.2500  90.9613 12.4831 0.0000    5.8094    5.8238    5.8247    5.7176    5.6181  0.0349  2.7740  2.5787  80.8407 22.6556 143.6062 146.1515
   11258.0000 6294.3994 1010.8845  402.7150 2392.6450 12.2500  89.3134 12.4786 0.0000    5.7411    5.7738    5.7756    5.6691    5.5691  0.0337  2.7581  2.5738  80.8899 23.1090 143.3069 145.9869
   11258.2500 6288.7485 1010.6722  402.6290 2399.4646 12.2500  88.0185 12.4711 0.0000    5.6693    5.7093    5.7118    5.6063    5.5061  0.0336  2.7561  2.5762  80.8899 23.6080 143.3069 145.9869
   11258.5000 6285.9941 1010.4601  402.5432 2399.4646 12.2500  87.3122 12.4662 0.0000    5.6046    5.6472    5.6502    5.5455    5.4451  0.0332  2.7763  2.5815  81.1549 24.1738 143.3981 145.9250
   11258.7500 6285.6147 1010.2482  402.4577 2405.2839 12.2500  87.0258 12.4641 0.0000    5.5630    5.6061    5.6092    5.5046    5.4032  0.0336  2.8184  2.5893  81.4001 23.6801 143.2756 145.9358
   11259.0000 6286.2393 1010.0363  402.3722 2394.2251 12.2500  85.4994 12.4660 0.0000    5.5522    5.5922    5.5948    5.4896    5.3863  0.0330  2.8652  2.5985  81.4001 22.9912 143.2756 145.9358
   11259.2500 6287.3521 1009.8244  402.2866 2394.2251 12.2500  83.5925 12.4613 0.0000    5.5690    5.5933    5.5948    5.4885    5.3826  0.0323  2.8940  2.6040  81.3356 21.8640 142.8860 145.7567
   11259.5000 6286.4365 1009.6127  402.2012 2388.5259 12.2500  81.1205 12.4613 0.0000    5.5890    5.5891    5.5888    5.4813    5.3731  0.0311  2.9035  2.6065  81.3356 21.5866 142.8860 145.7567
   11259.7500 6286.9805 1009.4009  402.1158 2388.5259 12.2500  79.2017 12.4564 0.0000    5.5338    5.5663    5.5634    5.4552    5.3453  0.0300  2.8859  2.6091  80.9145 21.4197 142.7876 145.5489
   11260.0000 6290.5244 1009.1894  402.0305 2389.9060 12.2500  79.7432 12.4536 0.0000    5.4715    5.5254    5.5194    5.4107    5.2999  0.0303  2.8599  2.6078  80.4704 22.3013 143.5502 146.2552
   11260.2500 6293.6812 1009.1894  402.0305 2389.9060 12.2500  79.7432 12.4536 0.0000    5.4715    5.5254    5.5194    5.4107    5.2999  0.0303  2.8599  2.6078  80.4704 22.3013 143.5502 146.2552
   11260.5000 6297.2407 1008.9779  401.9454 2389.2056 12.2500  81.7914 12.4488 0.0000    5.4180    5.4759    5.4662    5.3573    5.2460  0.0312  2.8500  2.6072  80.4022 22.5567 145.1428 147.5906
   11260.7500 6296.8784 1008.7666  401.8604 2388.6658 12.2500  84.5930 12.4496 0.0000    5.3703    5.4265    5.4127    5.3034    5.1916  0.0332  2.8484  2.6108  80.4022 22.4290 145.1428 147.5906
   11261.0000 6294.5186 1008.5552  401.7754 2388.6658 12.2500  86.5196 12.4523 0.0000    5.3277    5.3791    5.3609    5.2511    5.1388  0.0342  2.8504  2.6075  80.8134 21.9293 146.8363 148.5104
   11261.2500 6290.5552 1008.3438  401.6902 2397.3850 12.2500  87.5790 12.4504 0.0000    5.2853    5.3295    5.3069    5.1965    5.0840  0.0340  2.8345  2.6025  80.8134 22.0293 146.8363 148.5104
   11261.5000 6284.9058 1008.1324  401.6052 2397.3850 12.2500  88.5325 12.4525 0.0000    5.2337    5.2691    5.2421    5.1314    5.0193  0.0326  2.7837  2.5932  81.5360 22.5434 147.9464 149.0208
   11261.7500 6280.5962 1007.9210  401.5201 2399.0051 12.2500  88.4266 12.4552 0.0000    5.1600    5.1851    5.1541    5.0442    4.9335  0.0308  2.7205  2.5780  82.1592 23.3599 148.9553 149.5834
   11262.0000 6277.9912 1007.7095  401.4349 2397.4849 12.2500  88.1087 12.4569 0.0000    5.0533    5.0681    5.0339    4.9261    4.8183  0.0304  2.6631  2.5682  82.1592 23.9373 148.9553 149.5834
   11262.2500 6276.6807 1007.4979  401.3496 2397.4849 12.2500  86.8963 12.4552 0.0000    4.9229    4.9291    4.8928    4.7882    4.6843  0.0306  2.6302  2.5603  82.3449 24.1825 150.4247 150.8557
   11262.5000 6278.6709 1007.2863  401.2644 2388.6655 12.2500  85.3817 12.4568 0.0000    4.8026    4.8037    4.7663    4.6645    4.5639  0.0307  2.6450  2.5589  82.3449 24.7779 150.4247 150.8557
   11262.7500 6283.2720 1007.0747  401.1791 2388.6655 12.2500  84.6872 12.4635 0.0000    4.7282    4.7285    4.6903    4.5893    4.4902  0.0302  2.6878  2.5650  82.2387 24.5506 151.8505 152.3816
   11263.0000 6285.6860 1006.8629  401.0937 2381.7065 12.2500  84.4165 12.4713 0.0000    4.7135    4.7174    4.6784    4.5755    4.4754  0.0290  2.7411  2.5750  82.2387 25.3249 151.8505 152.3816
   11263.2500 6286.1357 1006.6508  401.0079 2381.7065 12.2500  85.5230 12.4730 0.0000    4.7464    4.7575    4.7177    4.6108    4.5077  0.0268  2.7978  2.5919  82.2559 25.7662 152.2144 153.5461
   11263.5000 6285.4424 1006.4387  400.9221 2381.5066 12.2500  86.4058 12.4752 0.0000    4.7976    4.8183    4.7779    4.6660    4.5589  0.0252  2.8199  2.6056  82.3239 26.8838 151.7197 153.8723
   11263.7500 6283.3892 1006.2264  400.8362 2388.0657 12.2500  87.1003 12.4756 0.0000    4.8398    4.8705    4.8300    4.7133    4.6025  0.0249  2.8175  2.6157  82.3239 26.1618 151.7197 153.8723
   11264.0000 6281.3774 1006.0142  400.7503 2388.0657 12.2500  87.1121 12.4734 0.0000    4.8623    4.9015    4.8608    4.7401    4.6266  0.0245  2.8288  2.6247  82.1863 24.7951 151.2685 153.7427
   11264.2500 6283.6494 1005.8021  400.6645 2391.7856 12.2500  87.1357 12.4756 0.0000    4.8661    4.9110    4.8697    4.7459    4.6307  0.0272  2.8681  2.6295  82.1863 24.1866 151.2685 153.7427
