~Version Information
 VERS.                  2.0:   CWLS log ASCII Standard -VERSION 2.0
 WRAP.                   NO:   One line per depth step
~Well Information Block
#MNEM.UNIT     VALUE/NAME     DESCRIPTION
#---------     -----------    ---------------------------
 STRT.F              6550.0000: START DEPTH
 STOP.F             12465.0000: STOP DEPTH
 STEP.F                 0.2500: STEP DEPTH
 NULL.                 -999.25: NULL VALUE
 DMF .                      KB:  DRILL MEAS FROM
 PDAT.                      GL:  PERMANENT DATUM
 DATE.             25-Dec-2019:  DATE
 SVCO.             Halliburton:  SERVICECONAME
 HIDE.                        :  WELLNAMEOPERAT
 BASI.                   BACIA:  BASIN
 UWI .                     N/A:  UNIQUE WELL IDENTIFIER
 API .                     N/A:  API NUMBER
 RANG.                     N/A:  RANGE
 TOWN.                     N/A:  TOWNSHIP
 SECT.                     N/A:  SECTION
 SON .                     N/A:  JOB NUMBER
 CNTY.                        :  COUNTY
 COMP.                        :  COMPANY
 CTRY.                        :  COUNTRY
 FLD .                   Oredo:  FIELD
 PROV.                        :  PROVINCE
 SRVC.             Halliburton:  SERVICE COMPANY
 STAT.                        :  STATE
 WELL.                Oredo 16:  WELL
 LOC .                        :  LOCATION
 LMF .                      KB:  LOG MEASURED FROM
 BAP .ft                0.0000:  GL ELEV ONSHORE
 GVFD.g                 1.0000:  GRAVITY FIELD
~Parameter Information Block
#MNEM.UNIT       Value        Description
#---------     -----------    ---------------------------
 BARI.                     OFF:  BARITE CORR 
 DCS .               25-Dec-19:  DateCircEndT 
 ENGI.          OLUCHI OHANEHI:  Engineer Name 
 IQVR.     WL INSITE R6.2.1 (Build 2):  WLIQ Version 
 LTYP.                     RAW:  LogDataType 
 RUN .                       3:  Run Number 
 SCT1.               26-Dec-19:  StartDateRun1 
 SVCN.     QUAD COMBO TOOLSTRING:  Service Name 
 SVCS.     RWCH, GTET, DSNT, SDLT, WSTT-I Receivers, ACRt Sonde:  Services 
 TCS .                   17 14:  Time Ciculation Ended 
 TDCE.ucts  17.14.51 25-Dec-19:  Time Circ End 
~Curve Information Block
#MNEM.UNIT                 API CODE     Curve Description
#---------               -----------    ---------------------------
 DEPT.ft                00 000 000 000:  Depth
 TENS.lbs               00 000 000 000:  Tension
 BHVT.ft3               00 000 000 000:  Borehole Volume
 AHVT.ft3               00 000 000 000:  Annular Volume
 DHTN.lbs               00 000 000 000:  CH Tension
 BITSIZE.in             00 000 000 000:  Bit Size
 GR  .api               00 000 000 000:  Gamma API
 CALI.in                00 000 000 000:  Caliper
 MMK .                  00 000 000 000:  Minute Mark
 RT10.ohmm              00 000 000 000:  10in Resistivity 2ft Res
 RT20.ohmm              00 000 000 000:  20in Resistivity 2ft Res
 RT30.ohmm              00 000 000 000:  30in Resistivity 2ft Res
 RT60.ohmm              00 000 000 000:  60in Resistivity 2ft Res
 RT90.ohmm              00 000 000 000:  90in Resistivity 2ft Res
 DRHO.g/cc              00 000 000 000:  DensityCorr
 PE  .                  00 000 000 000:  Pe
 RHOB.g/cc              00 000 000 000:  Density
 MDT .uspf              00 000 000 000:  MonoDeltaT
 NPHI.pu                00 000 000 000:  Neutron Porosity
 DXDT.uspf              00 000 000 000:  DipXDeltaT
 DYDT.uspf              00 000 000 000:  DipYDeltaT
#Other Information
#
#WARRANTY: Halliburton will use its best efforts to furnish customers with 
#accurate information and interpretations that are part of, and incident to, the services 
#provided.  However, Halliburton cannot and does not warrant the accuracy 
#or correctness of such information and interpretations.  Under no circumstances should any 
#such information or interpretation be relied upon as the sole basis for any drilling, 
#completion, production, or financial decision or any procedure involving any risk to the 
#safety of any drilling venture, drilling rig or its crew or any other third party.  The 
#Customer has full responsibility for all drilling, completion and production operation.  
#Halliburton makes no representations or warranties, either expressed or 
#implied, including, but not limited to, the implied warranties of merchantability or fitness 
#for a particular purpose, with respect to the services rendered.  In no event will 
#Halliburton be liable for failure to obtain any particular results or for 
#any damages, including, but not limited to, indirect, special or consequential damages, 
#resulting from the use of any information or interpretation provided by Halliburton.
#
~A    DEPT      TENS      BHVT      AHVT      DHTN    BITSIZE    GR     CALI    MMK     RT10      RT20      RT30      RT60      RT90     DRHO     PE     RHOB     MDT     NPHI     DXDT     DYDT   
    6550.0000 4487.7456 4863.0835 1879.6213 2044.8248 12.2500  26.9329 12.4874 0.0000  773.0078  761.2998  854.2798 1136.0073 1093.7211 -1.1711  7.3556  1.4289 105.1945 50.8192 216.9337 215.7125
    6550.2500 4487.3662 4862.8711 1879.5350 2045.2047 12.2500  28.9694 12.4899 0.0000  722.6403  717.0923  769.9879 1022.9270  978.3881 -1.1690  7.4466  1.4373 105.1806 52.5053 218.4194 215.7813
    6550.5000 4486.6479 4862.6582 1879.4486 2045.2047 12.2500  31.9397 12.4904 0.0000  723.7756  680.7888  701.0903  918.7393  872.6014 -1.1667  7.5743  1.4441 105.2277 50.4269 220.1402 215.7178
    6550.7500 4485.3540 4862.4453 1879.3622 2045.6246 12.2500  35.0355 12.4899 0.0000  714.9078  660.8596  658.2132  836.7739  789.2714 -1.1646  7.7452  1.4419 105.5447 54.9743 222.1785 216.5865
    6551.0000 4485.4805 4862.2324 1879.2758 2045.6246 12.2500  37.9391 12.4898 0.0000  712.5860  650.6528  631.2055  770.3652  721.3210 -1.1614  8.0358  1.4416 105.5447 55.7250 222.1785 216.5865
    6551.2500 4488.6294 4861.8066 1879.1029 2045.0850 12.2500  40.1522 12.4876 0.0000  705.9514  627.0325  580.0703  647.4246  592.9077 -1.1540  8.4736  1.4453 105.8046 52.4087 223.4263 217.8116
    6551.5000 4489.4810 4861.5942 1879.0166 2044.1849 12.2500  40.1168 12.4866 0.0000  701.0706  612.5904  556.9280  592.6809  534.9791 -1.1490  8.5833  1.4531 105.8046 55.4551 223.4263 217.8116
    6551.7500 4488.2109 4861.3818 1878.9303 2044.1849 12.2500  38.8887 12.4871 0.0000  685.0182  584.9114  534.2769  540.4973  477.6244 -1.1442  8.4943  1.4596 105.2656 54.2588 223.0149 218.0043
    6552.0000 4487.1689 4861.1694 1878.8440 2046.1647 12.2500  38.4296 12.4860 0.0000  514.9916  515.7153  513.0632  495.8448  430.5654 -1.1372  8.3253  1.4642 105.2656 54.5877 223.0149 218.0043
    6552.2500 4487.3193 4860.9570 1878.7577 2046.1647 12.2500  38.3433 12.4819 0.0000  658.6125  550.4575  492.9007  455.9125  391.6659 -1.1310  8.0814  1.4650 103.8536 52.2813 220.5986 216.7134
    6552.5000 4487.7534 4860.7446 1878.6716 2046.2047 12.2500  37.9038 12.4816 0.0000  678.9824  559.4363  474.2572  420.8290  359.3794 -1.1249  7.7616  1.4649 103.8536 53.2632 220.5986 216.7134
    6552.7500 4487.0273 4860.5322 1878.5856 2045.5847 12.2500  38.2256 12.4808 0.0000  676.6041  552.6749  457.1834  391.1068  332.3362 -1.1181  7.5306  1.4626 102.5064 55.8576 217.1127 214.5591
    6553.0000 4487.0034 4860.3198 1878.4995 2045.5847 12.2500  38.3865 12.4784 0.0000  671.8786  543.5049  441.5652  365.9594  309.5887 -1.1137  7.3490  1.4612 101.9161 56.8866 214.1085 212.4531
    6553.2500 4488.3057 4860.1074 1878.4136 2046.4248 12.2500  38.6650 12.4777 0.0000  666.5948  534.1307  427.3337  344.5381  290.3816 -1.1103  7.2592  1.4618 101.9161 55.5516 214.1085 212.4531
    6553.5000 4490.7998 4859.8950 1878.3276 2046.4248 12.2500  39.2065 12.4807 0.0000  661.1436  524.9522  414.1919  325.7176  273.8610 -1.1095  7.2611  1.4630 101.9765 52.0157 212.2077 211.4024
    6553.7500 4491.4390 4859.6826 1878.2416 2046.3646 12.2500  39.7245 12.4799 0.0000  655.7151  516.1902  402.0800  309.2552  259.6341 -1.1136  7.2729  1.4629 101.9765 56.2359 212.2077 211.4024
    6554.0000 4489.5288 4859.4702 1878.1555 2046.3646 12.2500  40.3562 12.4787 0.0000  650.4249  508.0850  391.1258  295.2120  248.4949 -1.1216  7.2895  1.4600 102.4828 59.9317 210.9233 211.1444
    6554.2500 4488.1084 4859.2578 1878.0695 2047.4248 12.2500  40.7682 12.4758 0.0000  645.2344  500.6944  381.3807  283.5191  241.5956 -1.1319  7.2819  1.4542 102.4828 61.9177 210.9233 211.1444
    6554.5000 4488.4478 4859.0454 1877.9835 2047.0647 12.2500  40.8428 12.4736 0.0000  640.2230  493.6621  372.2255  272.8614  235.3130 -1.1420  7.2488  1.4453 103.1775 64.4899 209.3496 210.7805
    6554.7500 4488.7866 4858.6211 1877.8119 2047.0647 12.2500  38.5944 12.4713 0.0000  631.1601  481.1038  356.1198  254.8754  224.6261 -1.1528  7.1861  1.4376 103.7556 55.9366 208.1486 210.3495
    6555.0000 4490.4839 4858.4092 1877.7261 2046.5045 12.2500  36.2755 12.4715 0.0000  628.2545  476.7063  350.0299  247.9268  220.3873 -1.1549  7.0514  1.4412 103.7556 51.8800 208.1486 210.3495
    6555.2500 4492.6147 4858.1973 1877.6403 2046.5045 12.2500  34.5137 12.4721 0.0000  625.5568  472.7527  344.7851  242.9172  216.4864 -1.1546  6.8061  1.4499 104.2902 51.4722 208.1607 210.7505
    6555.5000 4493.7827 4857.9854 1877.5544 2047.4047 12.2500  34.0310 12.4708 0.0000  623.0874  469.1751  340.1310  238.9297  212.9675 -1.1522  6.4615  1.4566 104.2902 54.9557 208.1607 210.7505
    6555.7500 4493.8140 4857.7734 1877.4688 2047.4047 12.2500  34.3685 12.4710 0.0000  620.8870  465.9601  335.9357  235.3719  209.8737 -1.1497  6.0446  1.4618 104.8195 55.2242 208.8277 211.9022
    6556.0000 4492.6382 4857.5615 1877.3831 2048.5847 12.2500  37.2407 12.4734 0.0000  618.9271  463.0739  332.1595  232.1974  207.1635 -1.1452  5.6574  1.4634 104.8195 58.4032 208.8277 211.9022
    6556.2500 4492.6694 4857.3496 1877.2972 2048.9045 12.2500  40.6819 12.4728 0.0000  616.9761  460.2497  328.5229  229.2234  204.6616 -1.1409  5.2978  1.4641 105.3387 55.7299 209.0632 212.8499
    6556.5000 4492.4961 4857.1377 1877.2114 2048.9045 12.2500  43.5737 12.4708 0.0000  615.1332  457.6002  325.1364  226.5055  202.4156 -1.1375  4.9592  1.4663 105.7633 53.1533 209.3261 213.3275
    6556.7500 4492.5439 4856.9258 1877.1257 2048.3247 12.2500  46.4263 12.4724 0.0000  613.4894  455.2266  322.0967  224.0867  200.4648 -1.1335  4.7067  1.4699 105.7633 54.1811 209.3261 213.3275
    6557.0000 4495.5112 4856.7139 1877.0399 2048.3247 12.2500  47.0188 12.4736 0.0000  612.0297  453.1089  319.3764  221.9377  198.7800 -1.1316  4.5605  1.4749 106.0419 61.3682 211.4214 214.7076
    6557.2500 4499.1416 4856.5020 1876.9541 2048.7847 12.2500  47.5093 12.4722 0.0000  610.5880  451.0509  316.7677  219.9313  197.2319 -1.1296  4.5842  1.4762 106.0419 64.4855 211.4214 214.7076
    6557.5000 4502.5825 4856.2900 1876.8683 2048.7847 12.2500  48.0586 12.4729 0.0000  609.2476  449.1447  314.3578  218.1086  195.8595 -1.1288  4.7508  1.4788 106.2640 60.1739 216.8676 218.6163
    6557.7500 4503.9004 4856.0781 1876.7825 2049.7444 12.2500  47.5603 12.4739 0.0000  608.0781  447.4667  312.2203  216.5013  194.6933 -1.1285  4.9608  1.4804 106.2640 54.2980 216.8676 218.6163
    6558.0000 4501.9590 4855.8657 1876.6967 2052.0840 12.2500  47.8624 12.4723 0.0000  607.0667  445.9998  310.3329  215.0898  193.7137 -1.1261  5.1665  1.4796 106.1442 51.5989 225.0715 224.7009
    6558.2500 4499.4814 4855.4414 1876.5250 2052.0840 12.2500  43.6757 12.4735 0.0000  605.1909  443.3112  306.9036  212.6138  192.0637 -1.1158  5.3202  1.4885 105.6237 54.7251 231.5616 229.2933
    6558.5000 4498.1626 4855.2295 1876.4392 2050.7241 12.2500  40.8271 12.4789 0.0000  604.4246  442.1969  305.4734  211.5992  191.4447 -1.1063  5.2764  1.4953 105.6237 56.8577 231.5616 229.2933
    6558.7500 4497.4136 4855.0171 1876.3531 2050.7241 12.2500  38.4414 12.4788 0.0000  603.7786  441.2401  304.2343  210.7273  190.9563 -1.0960  5.1809  1.5050 104.9948 59.0301 234.6243 230.7163
    6559.0000 4497.9106 4854.8047 1876.2671 2045.5449 12.2500  36.7777 12.4768 0.0000  603.1653  440.3380  303.0761  209.9373  190.5343 -1.0858  5.1034  1.5131 104.9948 52.3905 234.6243 230.7163
    6559.2500 4498.8579 4854.5923 1876.1812 2045.5449 12.2500  34.8707 12.4804 0.0000  602.6273  439.5377  302.0429  209.2484  190.1990 -1.0771  5.0171  1.5151 104.4944 52.9558 234.4336 229.6576
    6559.5000 4499.1968 4854.3799 1876.0951 2002.2898 12.2500  32.6970 12.4832 0.0000  602.1956  438.8735  301.1662  208.6728  189.9635 -1.0702  4.9722  1.5179 104.4944 50.8006 234.4336 229.6576
    6559.7500 4499.1729 4854.1675 1876.0089 2002.2898 12.2500  31.3158 12.4826 0.0000  601.8622  438.3349  300.4330  208.1995  189.8165 -1.0630  4.9418  1.5184 104.1818 49.7253 231.2132 226.9095
    6560.0000 4499.1338 4853.9551 1875.9227 1993.9508 12.2500  30.0523 12.4824 0.0000  601.5627  437.8462  299.7662  207.7874  189.7138 -1.0591  4.8496  1.5196 103.9139 49.4958 226.2238 223.1981
    6560.2500 4498.9917 4853.7427 1875.8365 1994.8108 12.2500  29.9935 12.4819 0.0000  601.3218  437.4349  299.1917  207.4462  189.6666 -1.0557  4.7548  1.5216 103.9139 47.1910 226.2238 223.1981
