~Version Information
 VERS.                  2.0:   CWLS log ASCII Standard -VERSION 2.0
 WRAP.                   NO:   One line per depth step
~Well Information Block
#MNEM.UNIT     VALUE/NAME     DESCRIPTION
#---------     -----------    ---------------------------
 STRT.F              6550.0000: START DEPTH
 STOP.F             12465.0000: STOP DEPTH
 STEP.F                 0.2500: STEP DEPTH
 NULL.                 -999.25: NULL VALUE
 DMF .                      KB:  DRILL MEAS FROM
 PDAT.                      GL:  PERMANENT DATUM
 DATE.             25-Dec-2019:  DATE
 SVCO.             Halliburton:  SERVICECONAME
 HIDE.                        :  WELLNAMEOPERAT
 BASI.                   BACIA:  BASIN
 UWI .                     N/A:  UNIQUE WELL IDENTIFIER
 API .                     N/A:  API NUMBER
 RANG.                     N/A:  RANGE
 TOWN.                     N/A:  TOWNSHIP
 SECT.                     N/A:  SECTION
 SON .                     N/A:  JOB NUMBER
 CNTY.                        :  COUNTY
 COMP.                        :  COMPANY
 CTRY.                        :  COUNTRY
 FLD .                   Oredo:  FIELD
 PROV.                        :  PROVINCE
 SRVC.             Halliburton:  SERVICE COMPANY
 STAT.                        :  STATE
 WELL.                Oredo 16:  WELL
 LOC .                        :  LOCATION
 LMF .                      KB:  LOG MEASURED FROM
 BAP .ft                0.0000:  GL ELEV ONSHORE
 GVFD.g                 1.0000:  GRAVITY FIELD
~Parameter Information Block
#MNEM.UNIT       Value        Description
#---------     -----------    ---------------------------
 BARI.                     OFF:  BARITE CORR 
 DCS .               25-Dec-19:  DateCircEndT 
 ENGI.          OLUCHI OHANEHI:  Engineer Name 
 IQVR.     WL INSITE R6.2.1 (Build 2):  WLIQ Version 
 LTYP.                     RAW:  LogDataType 
 RUN .                       3:  Run Number 
 SCT1.               26-Dec-19:  StartDateRun1 
 SVCN.     QUAD COMBO TOOLSTRING:  Service Name 
 SVCS.     RWCH, GTET, DSNT, SDLT, WSTT-I Receivers, ACRt Sonde:  Services 
 TCS .                   17 14:  Time Ciculation Ended 
 TDCE.ucts  17.14.51 25-Dec-19:  Time Circ End 
~Curve Information Block
#MNEM.UNIT                 API CODE     Curve Description
#---------               -----------    ---------------------------
 DEPT.ft                00 000 000 000:  Depth
 TENS.lbs               00 000 000 000:  Tension
 BHVT.ft3               00 000 000 000:  Borehole Volume
 AHVT.ft3               00 000 000 000:  Annular Volume
 DHTN.lbs               00 000 000 000:  CH Tension
 BITSIZE.in             00 000 000 000:  Bit Size
 GR  .api               00 000 000 000:  Gamma API
 CALI.in                00 000 000 000:  Caliper
 MMK .                  00 000 000 000:  Minute Mark
 RT10.ohmm              00 000 000 000:  10in Resistivity 2ft Res
 RT20.ohmm              00 000 000 000:  20in Resistivity 2ft Res
 RT30.ohmm              00 000 000 000:  30in Resistivity 2ft Res
 RT60.ohmm              00 000 000 000:  60in Resistivity 2ft Res
 RT90.ohmm              00 000 000 000:  90in Resistivity 2ft Res
 DRHO.g/cc              00 000 000 000:  DensityCorr
 PE  .                  00 000 000 000:  Pe
 RHOB.g/cc              00 000 000 000:  Density
 MDT .uspf              00 000 000 000:  MonoDeltaT
 NPHI.pu                00 000 000 000:  Neutron Porosity
 DXDT.uspf              00 000 000 000:  DipXDeltaT
 DYDT.uspf              00 000 000 000:  DipYDeltaT
#Other Information
#
#WARRANTY: Halliburton will use its best efforts to furnish customers with 
#accurate information and interpretations that are part of, and incident to, the services 
#provided.  However, Halliburton cannot and does not warrant the accuracy 
#or correctness of such information and interpretations.  Under no circumstances should any 
#such information or interpretation be relied upon as the sole basis for any drilling, 
#completion, production, or financial decision or any procedure involving any risk to the 
#safety of any drilling venture, drilling rig or its crew or any other third party.  The 
#Customer has full responsibility for all drilling, completion and production operation.  
#Halliburton makes no representations or warranties, either expressed or 
#implied, including, but not limited to, the implied warranties of merchantability or fitness 
#for a particular purpose, with respect to the services rendered.  In no event will 
#Halliburton be liable for failure to obtain any particular results or for 
#any damages, including, but not limited to, indirect, special or consequential damages, 
#resulting from the use of any information or interpretation provided by Halliburton.
#
~A    DEPT      TENS      BHVT      AHVT      DHTN    BITSIZE    GR     CALI    MMK     RT10      RT20      RT30      RT60      RT90     DRHO     PE     RHOB     MDT     NPHI     DXDT     DYDT   
# ...
   10078.0000 5761.3613 1987.8090  783.4151 1984.0320 12.2500  52.4415 12.2193 0.0000    9.4326    9.2780    9.2001    9.2810    9.1023  0.0475  1.9812  2.4979  81.5748 18.9057 138.5768 140.3244
   10078.2500 5758.9307 1987.6053  783.3378 1984.5918 12.2500  58.7588 12.2247 0.0000    8.7393    8.5410    8.4638    8.5079    8.3493  0.0495  2.0100  2.5197  81.8152 20.2297 143.7147 144.4751
   10078.5000 5756.1685 1987.4016  783.2604 1984.5918 12.2500  64.1736 12.2245 0.0000    8.3045    8.0893    8.0182    8.0431    7.8932  0.0469  2.0072  2.5227  81.8152 21.6861 143.7147 144.4751
   10078.7500 5755.0801 1987.1979  783.1829 1986.0916 12.2500  67.1518 12.2213 0.0000    8.0296    7.8193    7.7588    7.7733    7.6276  0.0458  1.9896  2.5238  82.1560 21.9043 147.9517 148.3984
   10079.0000 5754.5820 1986.9943  783.1056 1986.0916 12.2500  68.6860 12.2175 0.0000    7.8647    7.6800    7.6337    7.6439    7.4989  0.0438  1.9592  2.5224  82.1560 22.5548 147.9517 148.3984
   10079.2500 5754.5513 1986.7908  783.0284 1984.9919 12.2500  68.5094 12.2155 0.0000    7.7974    7.6589    7.6312    7.6431    7.4948  0.0395  1.9319  2.5126  82.7003 22.4150 152.1547 152.0872
   10079.5000 5755.8447 1986.5873  782.9512 1984.9919 12.2500  67.4225 12.2126 0.0000    7.8072    7.7814    7.7796    7.7999    7.6401  0.0380  1.9176  2.5030  82.7003 23.6165 152.1547 152.0872
   10079.7500 5757.4385 1986.3839  782.8742 1983.0320 12.2500  67.4225 12.2128 0.0000    8.0943    8.1156    8.1525    8.1885    7.9993  0.0379  1.9228  2.4914  83.3472 24.1851 155.3639 154.9199
   10080.0000 5756.7046 1986.1805  782.7971 1983.0320 12.2500  67.9954 12.2086 0.0000    8.5864    8.7580    8.8443    8.9000    8.6740  0.0394  1.9635  2.4806  83.3472 25.7294 155.3639 154.9199
   10080.2500 5755.0801 1985.9773  782.7202 1982.2522 12.2500  70.1456 12.2063 0.0000    9.4275    9.8047    9.9565   10.0399    9.7792  0.0429  2.0206  2.4697  84.1108 25.3092 156.2269 156.0125
   10080.5000 5754.6934 1985.7742  782.6434 1982.2522 12.2500  72.1428 12.2051 0.0000   10.7079   11.3579   11.5979   11.7192   11.4170  0.0455  2.0708  2.4508  84.1108 24.2354 156.2269 156.0125
   10080.7500 5755.1816 1985.5710  782.5666 1984.8318 12.2500  72.7275 12.1823 0.0000   12.4671   13.4604   13.8162   13.9873   13.6419  0.0464  2.0890  2.4176  85.4779 23.6447 154.8344 155.4640
   10081.0000 5754.8735 1985.3687  782.4905 1984.8318 12.2500  71.8996 12.1720 0.0000   14.5583   15.9348   16.4267   16.6561   16.2641  0.0446  2.0591  2.3685  85.4779 22.4280 154.8344 155.4640
   10081.2500 5755.5054 1985.1666  782.4149 1982.9918 12.2500  69.1411 12.1722 0.0000   16.4757   18.1870   18.8038   19.0876   18.6600  0.0410  2.0000  2.3178  87.4820 21.9517 152.0196 153.6411
   10081.5000 5756.8311 1984.9646  782.3392 1982.9918 12.2500  67.8777 12.1695 0.0000   17.4701   19.3398   20.0202   20.3333   19.8996  0.0382  1.9357  2.2803  87.4820 20.7493 152.0196 153.6411
   10081.7500 5756.4922 1984.7627  782.2635 1984.1918 12.2500  66.3042 12.1706 0.0000   17.0706   18.8411   19.4922   19.7963   19.3920  0.0365  1.8946  2.2672  88.7485 20.4099 149.3624 151.5155
   10082.0000 5756.9805 1984.5607  782.1879 1984.1119 12.2500  64.7740 12.1695 0.0000   15.4869   16.9402   17.4879   17.7495   17.3993  0.0362  1.8860  2.2806  88.7485 20.6317 149.3624 151.5155
   10082.2500 5756.5322 1984.3588  782.1122 1984.1119 12.2500  63.9970 12.1769 0.0000   13.4041   14.4519   14.8716   15.0770   14.7868  0.0368  1.9150  2.3104  88.8599 21.5552 148.3209 149.8694
   10082.5000 5756.9805 1984.1566  782.0364 1984.8317 12.2500  64.1854 12.1816 0.0000   11.4342   12.1092   12.4150   12.5669   12.3291  0.0371  1.9635  2.3480  88.2735 23.1139 149.2428 150.0981
   10082.7500 5758.1738 1983.9542  781.9604 1984.8317 12.2500  66.5514 12.1965 0.0000    9.8624   10.2527   10.4717   10.5803   10.3824  0.0390  2.0050  2.3904  88.2735 24.0447 149.2428 150.0981
   10083.0000 5759.3887 1983.7513  781.8839 1984.7917 12.2500  72.2409 12.2117 0.0000    8.7269    8.9223    9.0797    9.1551    8.9853  0.0420  2.0450  2.4285  87.4212 25.4565 151.9646 152.5461
   10083.2500 5760.6201 1983.5480  781.8068 1984.7917 12.2500  77.0711 12.2156 0.0000    7.9502    8.0204    8.1342    8.1845    8.0338  0.0462  2.0580  2.4608  87.4212 27.4849 151.9646 152.5461
   10083.5000 5761.8516 1983.3445  781.7297 1984.5916 12.2500  80.9361 12.2189 0.0000    7.4293    7.4223    7.5045    7.5350    7.3999  0.0506  2.0582  2.4824  86.9201 28.4754 155.1762 156.3448
   10083.7500 5764.0684 1983.1409  781.6524 1984.5916 12.2500  83.4120 12.2188 0.0000    7.0780    7.0267    7.0834    7.0979    6.9770  0.0512  2.0632  2.4851  86.9201 28.0512 155.1762 156.3448
   10084.0000 5767.1309 1982.9373  781.5751 1985.5515 12.2500  83.7023 12.2194 0.0000    6.8320    6.7603    6.7937    6.7956    6.6830  0.0510  2.0645  2.4810  86.7970 27.0921 157.9010 159.7413
   10084.2500 5769.7036 1982.7336  781.4979 1985.5515 12.2500  85.1070 12.2181 0.0000    6.6473    6.5573    6.5838    6.5759    6.4676  0.0495  2.0763  2.4712  86.7970 26.8407 157.9010 159.7413
   10084.5000 5771.2114 1982.5302  781.4207 1987.5713 12.2500  86.4451 12.2192 0.0000    6.4996    6.4084    6.4248    6.4093    6.3036  0.0477  2.0794  2.4609  86.6389 26.4663 159.9465 161.3975
   10084.7500 5772.2056 1982.3265  781.3434 1987.5713 12.2500  87.7948 12.2174 0.0000    6.3713    6.2946    6.3030    6.2816    6.1770  0.0475  2.0781  2.4582  86.6389 26.4632 159.9465 161.3975
   10085.0000 5772.7188 1982.1230  781.2662 1990.4915 12.2500  88.3049 12.2236 0.0000    6.2267    6.2115    6.2140    6.1888    6.0834  0.0465  2.0607  2.4544  86.4328 25.4962 160.4953 161.5425
   10085.2500 5772.9316 1981.9193  781.1888 1990.4915 12.2500  87.0925 12.2204 0.0000    6.1667    6.1631    6.1614    6.1332    6.0259  0.0455  2.0446  2.4540  86.4328 25.4574 160.4953 161.5425
   10085.5000 5772.9316 1981.7157  781.1115 1992.8109 12.2500  84.8598 12.2172 0.0000    6.1905    6.1460    6.1417    6.1112    6.0009  0.0440  2.0463  2.4570  86.5371 26.1199 159.8518 161.0405
   10085.7500 5774.0215 1981.5122  781.0342 1992.8109 12.2500  83.8907 12.2257 0.0000    6.1953    6.1384    6.1328    6.1006    5.9872  0.0423  2.0540  2.4619  86.5371 27.7426 159.8518 161.0405
   10086.0000 5776.4351 1981.3083  780.9567 1993.5709 12.2500  84.2634 12.2208 0.0000    6.1587    6.1088    6.1036    6.0705    5.9549  0.0413  2.0766  2.4721  87.3409 29.1236 159.2480 161.1982
   10086.2500 5778.5596 1981.1047  780.8794 1993.5709 12.2500  85.3346 12.2349 0.0000    6.0514    6.0333    6.0299    5.9969    5.8810  0.0407  2.0877  2.4825  87.3409 29.8859 159.2480 161.1982
   10086.5000 5778.3452 1980.9006  780.8016 1994.6703 12.2500  87.3907 12.2372 0.0000    5.9027    5.9026    5.9023    5.8703    5.7565  0.0393  2.0861  2.4901  88.8388 30.3964 159.8663 162.5344
   10086.7500 5775.5596 1980.6964  780.7237 1994.6703 12.2500  87.1239 12.2387 0.0000    5.7438    5.7264    5.7302    5.6998    5.5903  0.0378  2.0858  2.4931  88.8388 31.3860 159.8663 162.5344
   10087.0000 5771.9927 1980.4922  780.6458 1997.0300 12.2500  87.3044 12.2379 0.0000    5.6050    5.5342    5.5425    5.5139    5.4095  0.0343  2.0923  2.4902  90.6133 33.2878 161.9106 164.6202
   10087.2500 5771.2744 1980.2880  780.5679 1997.0300 12.2500  87.2730 12.2364 0.0000    5.4597    5.3653    5.3786    5.3516    5.2516  0.0304  2.1177  2.4849  90.6133 36.5382 161.9106 164.6202
   10087.5000 5772.7266 1980.0837  780.4901 2000.2100 12.2500  88.5090 12.2407 0.0000    5.3558    5.2519    5.2703    5.2447    5.1470  0.0294  2.1607  2.4789  92.0541 37.4544 165.0668 167.5467
   10087.7500 5773.2476 1979.8794  780.4120 2000.2100 12.2500  90.1060 12.2417 0.0000    5.3141    5.2058    5.2297    5.2049    5.1073  0.0296  2.2110  2.4767  92.0541 36.9138 165.0668 167.5467
   10088.0000 5773.3662 1979.6750  780.3340 1994.3304 12.2500  91.6676 12.2414 0.0000    5.3271    5.2163    5.2460    5.2216    5.1223  0.0314  2.2911  2.4809  93.0653 36.2993 168.9439 170.7787
   10088.2500 5772.9160 1979.4707  780.2560 1994.3304 12.2500  92.4092 12.2372 0.0000    5.3681    5.2559    5.2914    5.2673    5.1653  0.0320  2.3960  2.4882  93.0653 35.7946 168.9439 170.7787
