~Version Information
 VERS.                  2.0:   CWLS log ASCII Standard -VERSION 2.0
 WRAP.                   NO:   One line per depth step
~Well Information Block
#MNEM.UNIT     VALUE/NAME     DESCRIPTION
#---------     -----------    ---------------------------
 STRT.F              6550.0000: START DEPTH
 STOP.F             12465.0000: STOP DEPTH
 STEP.F                 0.2500: STEP DEPTH
 NULL.                 -999.25: NULL VALUE
 DMF .                      KB:  DRILL MEAS FROM
 PDAT.                      GL:  PERMANENT DATUM
 DATE.             25-Dec-2019:  DATE
 SVCO.             Halliburton:  SERVICECONAME
 HIDE.                        :  WELLNAMEOPERAT
 BASI.                   BACIA:  BASIN
 UWI .                     N/A:  UNIQUE WELL IDENTIFIER
 API .                     N/A:  API NUMBER
 RANG.                     N/A:  RANGE
 TOWN.                     N/A:  TOWNSHIP
 SECT.                     N/A:  SECTION
 SON .                     N/A:  JOB NUMBER
 CNTY.                        :  COUNTY
 COMP.                        :  COMPANY
 CTRY.                        :  COUNTRY
 FLD .                   Oredo:  FIELD
 PROV.                        :  PROVINCE
 SRVC.             Halliburton:  SERVICE COMPANY
 STAT.                        :  STATE
 WELL.                Oredo 16:  WELL
 LOC .                        :  LOCATION
 LMF .                      KB:  LOG MEASURED FROM
 BAP .ft                0.0000:  GL ELEV ONSHORE
 GVFD.g                 1.0000:  GRAVITY FIELD
~Parameter Information Block
#MNEM.UNIT       Value        Description
#---------     -----------    ---------------------------
 BARI.                     OFF:  BARITE CORR 
 DCS .               25-Dec-19:  DateCircEndT 
 ENGI.          OLUCHI OHANEHI:  Engineer Name 
 IQVR.     WL INSITE R6.2.1 (Build 2):  WLIQ Version 
 LTYP.                     RAW:  LogDataType 
 RUN .                       3:  Run Number 
 SCT1.               26-Dec-19:  StartDateRun1 
 SVCN.     QUAD COMBO TOOLSTRING:  Service Name 
 SVCS.     RWCH, GTET, DSNT, SDLT, WSTT-I Receivers, ACRt Sonde:  Services 
 TCS .                   17 14:  Time Ciculation Ended 
 TDCE.ucts  17.14.51 25-Dec-19:  Time Circ End 
~Curve Information Block
#MNEM.UNIT                 API CODE     Curve Description
#---------               -----------    ---------------------------
 DEPT.ft                00 000 000 000:  Depth
 TENS.lbs               00 000 000 000:  Tension
 BHVT.ft3               00 000 000 000:  Borehole Volume
 AHVT.ft3               00 000 000 000:  Annular Volume
 DHTN.lbs               00 000 000 000:  CH Tension
 BITSIZE.in             00 000 000 000:  Bit Size
 GR  .api               00 000 000 000:  Gamma API
 CALI.in                00 000 000 000:  Caliper
 MMK .                  00 000 000 000:  Minute Mark
 RT10.ohmm              00 000 000 000:  10in Resistivity 2ft Res
 RT20.ohmm              00 000 000 000:  20in Resistivity 2ft Res
 RT30.ohmm              00 000 000 000:  30in Resistivity 2ft Res
 RT60.ohmm              00 000 000 000:  60in Resistivity 2ft Res
 RT90.ohmm              00 000 000 000:  90in Resistivity 2ft Res
 DRHO.g/cc              00 000 000 000:  DensityCorr
 PE  .                  00 000 000 000:  Pe
 RHOB.g/cc              00 000 000 000:  Density
 MDT .uspf              00 000 000 000:  MonoDeltaT
 NPHI.pu                00 000 000 000:  Neutron Porosity
 DXDT.uspf              00 000 000 000:  DipXDeltaT
 DYDT.uspf              00 000 000 000:  DipYDeltaT
#Other Information
#
#WARRANTY: Halliburton will use its best efforts to furnish customers with 
#accurate information and interpretations that are part of, and incident to, the services 
#provided.  However, Halliburton cannot and does not warrant the accuracy 
#or correctness of such information and interpretations.  Under no circumstances should any 
#such information or interpretation be relied upon as the sole basis for any drilling, 
#completion, production, or financial decision or any procedure involving any risk to the 
#safety of any drilling venture, drilling rig or its crew or any other third party.  The 
#Customer has full responsibility for all drilling, completion and production operation.  
#Halliburton makes no representations or warranties, either expressed or 
#implied, including, but not limited to, the implied warranties of merchantability or fitness 
#for a particular purpose, with respect to the services rendered.  In no event will 
#Halliburton be liable for failure to obtain any particular results or for 
#any damages, including, but not limited to, indirect, special or consequential damages, 
#resulting from the use of any information or interpretation provided by Halliburton.
#
~A    DEPT      TENS      BHVT      AHVT      DHTN    BITSIZE    GR     CALI    MMK     RT10      RT20      RT30      RT60      RT90     DRHO     PE     RHOB     MDT     NPHI     DXDT     DYDT   
# ...
    9689.5000 5584.6089 2303.4387  902.6169 1832.1090 12.2500  97.7495 12.1494 0.0000    5.0208    4.8353    4.7088    4.5809    4.5178  0.0619  3.1888  2.4895  94.5332 33.6067 166.4202 164.9064
    9689.7500 5584.5767 2303.2375  902.5420 1832.1090 12.2500 103.0662 12.1517 0.0000    4.8412    4.6298    4.5074    4.3830    4.3216  0.0633  3.0588  2.5070  94.5332 34.6380 166.4202 164.9064
    9690.0000 5586.7700 2303.0361  902.4670 1837.2885 12.2500 106.0326 12.1608 0.0000    4.6571    4.4274    4.3108    4.1912    4.1321  0.0629  2.9195  2.5358  92.5039 36.2156 162.7129 163.9167
    9690.2500 5587.8198 2302.8345  902.3917 1837.2885 12.2500 109.8976 12.1680 0.0000    4.4765    4.2367    4.1272    4.0131    3.9567  0.0582  2.8357  2.5702  92.5039 35.4439 162.7129 163.9167
    9690.5000 5588.5938 2302.6326  902.3161 1834.7086 12.2500 111.6240 12.1908 0.0000    4.3068    4.0650    3.9633    3.8550    3.8014  0.0534  2.7798  2.6082  90.5352 33.1722 159.7364 163.0023
    9690.7500 5589.4307 2302.4299  902.2398 1834.7086 12.2500 110.1644 12.1968 0.0000    4.1537    3.9172    3.8239    3.7212    3.6702  0.0490  2.7716  2.6422  90.5352 32.5813 159.7364 163.0023
    9691.0000 5588.9575 2302.2271  902.1633 1834.8086 12.2500 107.1470 12.2004 0.0000    4.0247    3.7992    3.7145    3.6168    3.5681  0.0457  2.8118  2.6638  88.4821 33.9019 158.0772 161.5778
    9691.2500 5588.9805 2302.0242  902.0866 1834.8086 12.2500 104.4827 12.2001 0.0000    3.9329    3.7223    3.6458    3.5520    3.5050  0.0469  2.8219  2.6757  88.4821 35.9762 158.0772 161.5778
    9691.5000 5590.7886 2301.8213  902.0099 1836.4482 12.2500 104.1335 12.1990 0.0000    3.9046    3.7098    3.6402    3.5480    3.5015  0.0435  2.8432  2.6703  86.3379 34.2141 156.9947 160.0151
    9691.7500 5590.2983 2301.6184  901.9333 1836.4482 12.2500 108.1515 12.1994 0.0000    3.9814    3.8002    3.7355    3.6408    3.5927  0.0402  2.8311  2.6577  86.3379 34.1000 156.9947 160.0151
    9692.0000 5586.8579 2301.4155  901.8568 1835.5084 12.2500 114.2765 12.2054 0.0000    4.2189    4.0465    3.9831    3.8794    3.8264  0.0359  2.7692  2.6315  85.2845 33.6394 155.9674 158.5636
    9692.2500 5583.8828 2301.2124  901.7800 1835.5084 12.2500 118.0473 12.1927 0.0000    4.6830    4.5124    4.4459    4.3228    4.2593  0.0300  2.7107  2.5948  85.2845 34.5899 155.9674 158.5636
    9692.5000 5582.3755 2301.0098  901.7036 1837.4482 12.2500 117.4273 12.1793 0.0000    5.4374    5.2591    5.1835    5.0257    4.9439  0.0255  2.6216  2.5431  86.0260 32.2996 155.3012 157.4360
    9692.7500 5582.4219 2300.8076  901.6276 1837.4482 12.2500 109.6935 12.1581 0.0000    6.4789    6.2800    6.1881    5.9785    5.8695  0.0197  2.4931  2.4647  86.0260 29.9646 155.3012 157.4360
    9693.0000 5583.0059 2300.6060  901.5524 1834.8086 12.2500  97.1374 12.1378 0.0000    7.5743    7.3409    7.2300    6.9655    6.8278  0.0168  2.3400  2.3815  88.0343 27.9714 155.3799 156.8569
    9693.2500 5583.2280 2300.4050  901.4778 1834.8086 12.2500  83.3413 12.1283 0.0000    8.1801    7.9143    7.7959    7.5139    7.3670  0.0164  2.1754  2.3041  88.0343 26.7561 155.3799 156.8569
    9693.5000 5583.1553 2300.2043  901.4035 1832.7090 12.2500  72.4489 12.1239 0.0000    7.9410    7.6756    7.5713    7.3298    7.2038  0.0200  2.0521  2.2609  88.9702 27.2803 155.7790 156.6167
    9693.7500 5582.1782 2300.0039  901.3294 1832.7090 12.2500  67.9797 12.1195 0.0000    7.2115    6.9787    6.8992    6.7200    6.6266  0.0289  2.0148  2.2696  88.9702 27.9486 155.7790 156.6167
    9694.0000 5581.5464 2299.8037  901.2554 1833.4290 12.2500  70.5223 12.1260 0.0000    6.5594    6.3658    6.3083    6.1778    6.1099  0.0363  2.0680  2.3143  88.4223 28.5594 155.7296 156.4892
    9694.2500 5583.6133 2299.6033  901.1813 1833.4290 12.2500  77.5067 12.1454 0.0000    6.2764    6.1156    6.0743    5.9730    5.9200  0.0418  2.1596  2.3767  88.4223 29.2746 155.7296 156.4892
    9694.5000 5587.9634 2299.4021  901.1064 1833.9690 12.2500  83.4002 12.1470 0.0000    6.4542    6.3228    6.2955    6.2094    6.1638  0.0455  2.2325  2.4282  87.6399 29.8382 154.5324 155.8876
    9694.7500 5591.1353 2299.2009  901.0316 1833.9690 12.2500  86.4529 12.1374 0.0000    7.1595    7.0760    7.0668    6.9887    6.9457  0.0439  2.2563  2.4476  87.6399 30.5033 154.5324 155.8876
    9695.0000 5591.5854 2299.0000  900.9570 1832.6689 12.2500  84.5381 12.1204 0.0000    8.5969    8.5731    8.6012    8.5299    8.4884  0.0416  2.2111  2.4290  87.0523 28.6601 151.9063 154.2166
    9695.2500 5590.5283 2298.7998  900.8831 1832.6689 12.2500  78.8172 12.1126 0.0000   11.0316   11.2062   11.3058   11.2749   11.2437  0.0393  2.1205  2.3779  87.0523 24.6491 151.9063 154.2166
    9695.5000 5587.4883 2298.5999  900.8093 1835.3884 12.2500  71.8643 12.0996 0.0000   14.9863   15.5733   15.8114   15.8853   15.8973  0.0378  2.0195  2.3074  85.8835 21.2088 147.7723 151.3835
    9695.7500 5584.7510 2298.4001  900.7360 1835.3884 12.2500  63.4909 12.0884 0.0000   21.0846   22.4664   22.9817   23.2721   23.3700  0.0378  1.9318  2.2333  85.8835 17.5796 147.7723 151.3835
    9696.0000 5583.1646 2298.2009  900.6631 1838.7281 12.2500  56.0357 12.0902 0.0000   29.8446   32.6363   33.6585   34.3551   34.6249  0.0397  1.8708  2.1758  84.5187 15.4621 142.1296 147.2220
    9696.2500 5581.4907 2298.0017  900.5901 1838.7281 12.2500  48.6589 12.0903 0.0000   41.3367   46.3121   48.1923   49.4963   50.0567  0.0411  1.8382  2.1425  84.5187 13.7590 142.1296 147.2220
    9696.5000 5580.2837 2297.8025  900.5171 1837.9485 12.2500  42.7262 12.0930 0.0000   55.1271   63.0761   66.3025   68.5548   69.5867  0.0398  1.8164  2.1299  83.7752 12.8441 137.1882 142.5295
    9696.7500 5579.3989 2297.6030  900.4440 1837.9485 12.2500  38.0647 12.0927 0.0000   70.3207   81.8535   87.0145   90.6268   92.3513  0.0391  1.7862  2.1354  83.7752 12.0071 137.1882 142.5295
    9697.0000 5579.8013 2297.4036  900.3710 1836.8285 12.2500  34.0467 12.0945 0.0000   85.4772  100.9062  108.5930  113.9985  116.6448  0.0350  1.7512  2.1444  83.7033 11.8650 134.5310 139.0406
    9697.2500 5582.7700 2297.2041  900.2979 1836.8285 12.2500  31.6061 12.0945 0.0000   98.0433  117.2736  127.8659  135.3893  139.1224  0.0315  1.7160  2.1555  83.7033 11.8338 134.5310 139.0406
    9697.5000 5585.8237 2297.0046  900.2247 1835.9685 12.2500  29.8522 12.0966 0.0000  105.2065  127.7560  141.2368  150.9674  155.8089  0.0305  1.6841  2.1672  83.2082 11.7942 133.6562 137.3890
    9697.7500 5588.3579 2296.8052  900.1516 1835.9685 12.2500  30.0366 12.0955 0.0000  106.9736  132.4330  148.6208  160.5363  166.4171  0.0301  1.6791  2.1760  83.2082 11.7222 133.6562 137.3890
    9698.0000 5589.9194 2296.6057  900.0784 1835.2285 12.2500  31.0882 12.0956 0.0000  106.6517  135.2871  154.3882  168.7173  175.6630  0.0327  1.6909  2.1848  82.4734 11.6497 134.2966 137.6178
    9698.2500 5589.9595 2296.4063  900.0052 1835.2285 12.2500  34.1213 12.0936 0.0000  107.7673  140.7192  163.6706  181.1526  189.4138  0.0356  1.7103  2.1868  82.4734 12.1194 134.2966 137.6178
    9698.5000 5589.9517 2296.2068  899.9321 1838.9080 12.2500  37.6723 12.0948 0.0000  111.7280  150.7930  179.2434  201.1423  211.1733  0.0378  1.7309  2.1849  82.5141 12.7605 136.2342 139.3203
    9698.7500 5590.0225 2296.0073  899.8589 1838.9080 12.2500  40.8977 12.0948 0.0000  116.7040  163.5985  199.4474  227.1799  239.4193  0.0390  1.7269  2.1785  82.5141 13.3124 136.2342 139.3203
    9699.0000 5589.8887 2295.8079  899.7858 1840.6881 12.2500  43.3304 12.0965 0.0000  118.6072  173.7384  218.4636  254.2522  277.2783  0.0384  1.7064  2.1662  83.3785 13.4078 138.6837 141.1847
    9699.2500 5588.2944 2295.6084  899.7126 1840.6881 12.2500  43.5816 12.0927 0.0000  112.2241  175.9826  232.0642  285.9719  313.1933  0.0371  1.6782  2.1535  83.3785 12.9804 138.6837 141.1847
    9699.5000 5586.8179 2295.4089  899.6396 1841.7478 12.2500  42.9184 12.0944 0.0000  103.0967  172.6186  238.9025  307.9025  337.3232  0.0350  1.6615  2.1412  84.7987 13.2832 140.9892 142.7795
    9699.7500 5589.1226 2295.2095  899.5665 1841.7478 12.2500  42.7301 12.0936 0.0000   93.2839  166.0668  241.1329  322.3189  352.1121  0.0330  1.6650  2.1322  84.7987 13.9406 140.9892 142.7795
