~Version Information
 VERS.                  2.0:   CWLS log ASCII Standard -VERSION 2.0
 WRAP.                   NO:   One line per depth step
~Well Information Block
#MNEM.UNIT     VALUE/NAME     DESCRIPTION
#---------     -----------    ---------------------------
 STRT.F              6550.0000: START DEPTH
 STOP.F             12465.0000: STOP DEPTH
 STEP.F                 0.2500: STEP DEPTH
 NULL.                 -999.25: NULL VALUE
 DMF .                      KB:  DRILL MEAS FROM
 PDAT.                      GL:  PERMANENT DATUM
 DATE.             25-Dec-2019:  DATE
 SVCO.             Halliburton:  SERVICECONAME
 HIDE.                        :  WELLNAMEOPERAT
 BASI.                   BACIA:  BASIN
 UWI .                     N/A:  UNIQUE WELL IDENTIFIER
 API .                     N/A:  API NUMBER
 RANG.                     N/A:  RANGE
 TOWN.                     N/A:  TOWNSHIP
 SECT.                     N/A:  SECTION
 SON .                     N/A:  JOB NUMBER
 CNTY.                        :  COUNTY
 COMP.                        :  COMPANY
 CTRY.                        :  COUNTRY
 FLD .                   Oredo:  FIELD
 PROV.                        :  PROVINCE
 SRVC.             Halliburton:  SERVICE COMPANY
 STAT.                        :  STATE
 WELL.                Oredo 16:  WELL
 LOC .                        :  LOCATION
 LMF .                      KB:  LOG MEASURED FROM
 BAP .ft                0.0000:  GL ELEV ONSHORE
 GVFD.g                 1.0000:  GRAVITY FIELD
~Parameter Information Block
#MNEM.UNIT       Value        Description
#---------     -----------    ---------------------------
 BARI.                     OFF:  BARITE CORR 
 DCS .               25-Dec-19:  DateCircEndT 
 ENGI.          OLUCHI OHANEHI:  Engineer Name 
 IQVR.     WL INSITE R6.2.1 (Build 2):  WLIQ Version 
 LTYP.                     RAW:  LogDataType 
 RUN .                       3:  Run Number 
 SCT1.               26-Dec-19:  StartDateRun1 
 SVCN.     QUAD COMBO TOOLSTRING:  Service Name 
 SVCS.     RWCH, GTET, DSNT, SDLT, WSTT-I Receivers, ACRt Sonde:  Services 
 TCS .                   17 14:  Time Ciculation Ended 
 TDCE.ucts  17.14.51 25-Dec-19:  Time Circ End 
~Curve Information Block
#MNEM.UNIT                 API CODE     Curve Description
#---------               -----------    ---------------------------
 DEPT.ft                00 000 000 000:  Depth
 TENS.lbs               00 000 000 000:  Tension
 BHVT.ft3               00 000 000 000:  Borehole Volume
 AHVT.ft3               00 000 000 000:  Annular Volume
 DHTN.lbs               00 000 000 000:  CH Tension
 BITSIZE.in             00 000 000 000:  Bit Size
 GR  .api               00 000 000 000:  Gamma API
 CALI.in                00 000 000 000:  Caliper
 MMK .                  00 000 000 000:  Minute Mark
 RT10.ohmm              00 000 000 000:  10in Resistivity 2ft Res
 RT20.ohmm              00 000 000 000:  20in Resistivity 2ft Res
 RT30.ohmm              00 000 000 000:  30in Resistivity 2ft Res
 RT60.ohmm              00 000 000 000:  60in Resistivity 2ft Res
 RT90.ohmm              00 000 000 000:  90in Resistivity 2ft Res
 DRHO.g/cc              00 000 000 000:  DensityCorr
 PE  .                  00 000 000 000:  Pe
 RHOB.g/cc              00 000 000 000:  Density
 MDT .uspf              00 000 000 000:  MonoDeltaT
 NPHI.pu                00 000 000 000:  Neutron Porosity
 DXDT.uspf              00 000 000 000:  DipXDeltaT
 DYDT.uspf              00 000 000 000:  DipYDeltaT
#Other Information
#
#WARRANTY: Halliburton will use its best efforts to furnish customers with 
#accurate information and interpretations that are part of, and incident to, the services 
#provided.  However, Halliburton cannot and does not warrant the accuracy 
#or correctness of such information and interpretations.  Under no circumstances should any 
#such information or interpretation be relied upon as the sole basis for any drilling, 
#completion, production, or financial decision or any procedure involving any risk to the 
#safety of any drilling venture, drilling rig or its crew or any other third party.  The 
#Customer has full responsibility for all drilling, completion and production operation.  
#Halliburton makes no representations or warranties, either expressed or 
#implied, including, but not limited to, the implied warranties of merchantability or fitness 
#for a particular purpose, with respect to the services rendered.  In no event will 
#Halliburton be liable for failure to obtain any particular results or for 
#any damages, including, but not limited to, indirect, special or consequential damages, 
#resulting from the use of any information or interpretation provided by Halliburton.
#
~A    DEPT      TENS      BHVT      AHVT      DHTN    BITSIZE    GR     CALI    MMK     RT10      RT20      RT30      RT60      RT90     DRHO     PE     RHOB     MDT     NPHI     DXDT     DYDT   
# ...
    7337.5000 4736.6650 4214.5640 1629.4911 2025.2070 12.2500  22.6717 12.2094 0.0000   15.3950   23.1683   37.7545   71.1585   78.2674  0.0562  1.5659  2.2416  88.3070 27.3042 159.8650 163.1039
    7337.7500 4736.4507 4214.3608 1629.4142 2025.7869 12.2500  21.6868 12.1998 0.0000   18.2943   28.0028   45.9002   84.4713   91.7826  0.0541  1.6176  2.2270  88.5237 28.4885 160.0981 163.3279
    7338.0000 4735.1729 4214.1577 1629.3375 2025.7869 12.2500  20.9060 12.1951 0.0000   21.2218   33.1624   54.7982   98.5894  106.0973  0.0525  1.6665  2.2183  88.5237 28.7815 160.0981 163.3279
    7338.2500 4733.3340 4213.9551 1629.2611 2026.6465 12.2500  20.4547 12.1912 0.0000   23.6771   37.8482   63.1563  111.2330  118.8746  0.0502  1.7082  2.2122  89.3710 29.7480 160.2541 163.3972
    7338.5000 4732.2290 4213.7524 1629.1848 2026.6465 12.2500  20.2036 12.1839 0.0000   25.5027   41.7251   70.4146  121.5823  129.3694  0.0479  1.7404  2.2062  89.3710 29.4741 160.2541 163.3972
    7338.7500 4731.7959 4213.5498 1629.1088 2026.3669 12.2500  20.0977 12.1863 0.0000   26.9641   45.1409   77.1540  130.7695  138.8499  0.0458  1.7539  2.2010  89.3710 28.7506 160.2541 163.3972
    7339.0000 4731.1792 4213.3472 1629.0326 2026.3669 12.2500  19.5444 12.1957 0.0000   28.4450   48.8141   84.4022  140.5918  149.2639  0.0429  1.7432  2.1966  90.0895 28.2620 160.1949 163.2500
    7339.2500 4731.1563 4213.1445 1628.9561 2024.3873 12.2500  18.7047 12.2064 0.0000   30.2804   53.2859   93.1171  152.5978  162.2817  0.0405  1.7127  2.1962  90.0895 28.7281 160.1949 163.2500
    7339.5000 4732.6392 4212.9414 1628.8792 2024.3873 12.2500  17.9357 12.2119 0.0000   32.5447   58.7064  103.6483  167.2903  178.5076  0.0377  1.6645  2.1956  90.2109 28.3999 160.1483 163.0140
    7339.7500 4733.4453 4212.7383 1628.8021 2024.1072 12.2500  17.1156 12.2192 0.0000   35.1706   65.0517  115.9431  184.5235  197.8722  0.0356  1.6282  2.1983  90.2109 28.6819 160.1483 163.0140
    7340.0000 4733.5791 4212.5347 1628.7249 2024.2073 12.2500  17.1744 12.2271 0.0000   37.9567   71.9528  129.2839  203.1851  219.3188  0.0348  1.6192  2.1999  89.7539 27.5539 160.4197 163.0642
    7340.2500 4733.8628 4212.3311 1628.6473 2024.2073 12.2500  17.5040 12.2246 0.0000   40.5815   78.7165  142.3395  221.3139  240.8666  0.0341  1.6375  2.1982  89.7539 27.5084 160.4197 163.0642
    7340.5000 4734.5967 4212.1274 1628.5699 2025.0270 12.2500  17.5511 12.2174 0.0000   42.5986   84.4342  153.3845  236.9867  265.5498  0.0349  1.6882  2.1992  89.7539 27.4340 160.4197 163.0642
    7340.7500 4734.5103 4211.9238 1628.4928 2025.0270 12.2500  17.4216 12.2061 0.0000   43.7877   88.3570  161.0099  248.1310  289.5284  0.0344  1.7341  2.1979  89.0126 28.5211 161.1974 163.6904
    7341.0000 4733.6025 4211.7207 1628.4160 2025.5670 12.2500  16.9429 12.1992 0.0000   44.1500   90.1007  164.4912  253.2328  304.8853  0.0332  1.7642  2.1981  89.0126 29.0858 161.1974 163.6904
    7341.2500 4731.8818 4211.5176 1628.3394 2025.5670 12.2500  16.5662 12.1935 0.0000   43.7982   89.8477  164.2470  253.0658  312.0374  0.0325  1.7756  2.2003  88.3807 29.2130 162.1559 164.3422
    7341.5000 4730.2080 4211.3149 1628.2629 2025.6469 12.2500  16.6761 12.1875 0.0000   42.9539   88.1412  161.3805  249.4926  313.7679  0.0309  1.7743  2.2018  88.3807 29.1201 162.1559 164.3422
    7341.7500 4730.0356 4211.1123 1628.1868 2025.6469 12.2500  17.3667 12.1904 0.0000   41.9811   85.9444  157.7793  245.6137  315.4997  0.0307  1.7801  2.2055  88.1509 28.6208 162.3943 164.2616
    7342.0000 4730.7998 4210.9097 1628.1105 2024.6272 12.2500  17.6414 12.1922 0.0000   41.3398   84.4453  155.7274  245.2402  324.5451  0.0309  1.7896  2.2085  88.1509 28.5608 162.3943 164.2616
    7342.2500 4731.7480 4210.7070 1628.0341 2024.6272 12.2500  18.1279 12.1887 0.0000   41.5160   84.8941  157.6716  252.6848  350.1559  0.0311  1.8012  2.2090  88.1141 28.4173 161.5535 163.7063
    7342.5000 4732.7344 4210.5044 1627.9578 2022.7474 12.2500  18.7165 12.1900 0.0000   42.6894   87.6615  165.9132  277.6978  402.9548  0.0317  1.7983  2.2088  88.1141 28.1561 161.5535 163.7063
    7342.7500 4732.9624 4210.5044 1627.9578 2022.7474 12.2500  18.7165 12.1900 0.0000   42.6894   87.6615  165.9132  277.6978  402.9548  0.0317  1.7983  2.2088  88.1141 28.1561 161.5535 163.7063
    7343.0000 4732.8916 4210.3018 1627.8815 2022.4075 12.2500  18.8617 12.1860 0.0000   44.9511   93.0393  182.0452  333.6038  492.1356  0.0326  1.7785  2.2073  88.1938 27.8060 160.4571 163.3972
    7343.2500 4731.9224 4210.0991 1627.8053 2022.4075 12.2500  19.6739 12.1896 0.0000   48.4235  102.0443  205.8130  422.9601  618.1024  0.0336  1.7610  2.2062  88.1938 27.9462 160.4571 163.3972
    7343.5000 4731.3921 4209.8965 1627.7290 2022.7073 12.2500  19.8858 12.1898 0.0000   52.5122  113.7026  234.3306  539.9984  765.3496  0.0348  1.7537  2.2069  88.4180 28.7989 159.7806 163.4301
    7343.7500 4730.9971 4209.6938 1627.6527 2022.7073 12.2500  19.8662 12.1877 0.0000   55.8743  124.1554  262.1467  664.5540  908.3129  0.0361  1.7671  2.2082  88.4180 28.7178 159.7806 163.4301
    7344.0000 4731.0776 4209.4912 1627.5765 2023.2074 12.2500  19.2658 12.1843 0.0000   57.4622  131.2364  289.1994  774.7923 1027.7230  0.0372  1.7968  2.2110  88.2242 28.0559 159.5919 163.3018
    7344.2500 4731.4321 4209.2886 1627.5005 2023.0671 12.2500  18.4889 12.1885 0.0000   57.2246  134.0308  309.0219  859.3007 1117.3240  0.0387  1.8237  2.2149  88.2242 26.9628 159.5919 163.3018
    7344.5000 4731.6294 4209.0859 1627.4242 2023.0671 12.2500  18.0926 12.1830 0.0000   55.7615  133.1129  315.6148  918.1905 1180.4010  0.0405  1.8420  2.2192  87.7468 27.7784 159.8285 162.7639
    7344.7500 4732.0161 4208.8838 1627.3481 2023.6472 12.2500  17.5040 12.1791 0.0000   53.6498  129.6929  311.3883  954.5738 1221.1938  0.0426  1.8439  2.2242  87.7468 28.2533 159.8285 162.7639
    7345.0000 4732.4263 4208.6816 1627.2722 2023.6472 12.2500  17.6374 12.1769 0.0000   51.2021  124.4262  297.8188  967.7499 1239.9932  0.0447  1.8390  2.2259  88.0002 30.0713 160.3373 162.3970
    7345.2500 4731.7080 4208.4795 1627.1964 2023.4473 12.2500  16.7978 12.1781 0.0000   48.3581  117.1380  275.1338  949.5195 1230.4441  0.0465  1.8324  2.2264  88.0002 29.7134 160.3373 162.3970
    7345.5000 4730.7539 4208.2773 1627.1205 2023.4473 12.2500  16.5741 12.1820 0.0000   44.7489  107.7650  252.3878  891.0511 1184.6882  0.0480  1.8189  2.2293  88.0002 29.0615 160.3373 162.3970
    7345.7500 4729.6406 4208.0752 1627.0444 2024.1472 12.2500  15.8678 12.1822 0.0000   40.6286   96.4452  223.1028  788.2060 1095.8698  0.0493  1.8107  2.2324  89.2914 28.2763 160.6552 162.4084
    7346.0000 4730.0200 4207.8730 1626.9684 2024.1472 12.2500  15.4166 12.1863 0.0000   36.4008   84.4189  191.3107  653.2653  967.3551  0.0503  1.8033  2.2380  89.2914 28.1962 160.6552 162.4084
    7346.2500 4731.0527 4207.6704 1626.8922 2023.0273 12.2500  15.4519 12.1862 0.0000   32.5156   72.9917  161.0390  509.2274  810.8959  0.0506  1.8047  2.2426  90.0940 29.6218 160.4552 162.3137
    7346.5000 4732.1812 4207.4678 1626.8160 2023.0273 12.2500  15.1576 12.1860 0.0000   29.2552   62.9970  134.7647  380.2701  645.1726  0.0495  1.8187  2.2418  90.0940 29.8040 160.4552 162.3137
    7346.7500 4734.5659 4207.2651 1626.7399 2022.5875 12.2500  15.3930 12.1899 0.0000   26.6655   54.6460  113.0936  280.4470  489.2033  0.0471  1.8400  2.2376  89.0099 29.9875 159.9311 162.0650
    7347.0000 4736.7192 4207.0625 1626.6636 2022.5875 12.2500  15.2636 12.1796 0.0000   24.6138   47.7824   95.7314  226.0309  358.1843  0.0443  1.8642  2.2312  89.0099 29.3614 159.9311 162.0650
    7347.2500 4737.6440 4206.8604 1626.5876 2023.6875 12.2500  15.5892 12.1749 0.0000   22.8694   42.0199   81.5024  186.1698  259.4271  0.0416  1.8770  2.2245  89.0099 28.6539 159.9311 162.0650
    7347.5000 4739.1191 4206.6582 1626.5118 2023.6875 12.2500  16.3661 12.1729 0.0000   21.0486   37.1058   69.7337  154.9945  208.9854  0.0396  1.8766  2.2202  86.9166 28.6232 159.6904 161.8052
    7347.7500 4743.0098 4206.4561 1626.4362 2026.0670 12.2500  17.1391 12.1784 0.0000   19.4015   32.9371   60.0523  129.8452  171.4686  0.0381  1.8568  2.2175  86.9166 27.6712 159.6904 161.8052
