~Version Information
 VERS.                  2.0:   CWLS log ASCII Standard -VERSION 2.0
 WRAP.                   NO:   One line per depth step
~Well Information Block
#MNEM.UNIT     VALUE/NAME     DESCRIPTION
#---------     -----------    ---------------------------
 STRT.F              6550.0000: START DEPTH
 STOP.F             12465.0000: STOP DEPTH
 STEP.F                 0.2500: STEP DEPTH
 NULL.                 -999.25: NULL VALUE
 DMF .                      KB:  DRILL MEAS FROM
 PDAT.                      GL:  PERMANENT DATUM
 DATE.             25-Dec-2019:  DATE
 SVCO.             Halliburton:  SERVICECONAME
 HIDE.                        :  WELLNAMEOPERAT
 BASI.                   BACIA:  BASIN
 UWI .                     N/A:  UNIQUE WELL IDENTIFIER
 API .                     N/A:  API NUMBER
 RANG.                     N/A:  RANGE
 TOWN.                     N/A:  TOWNSHIP
 SECT.                     N/A:  SECTION
 SON .                     N/A:  JOB NUMBER
 CNTY.                        :  COUNTY
 COMP.                        :  COMPANY
 CTRY.                        :  COUNTRY
 FLD .                   Oredo:  FIELD
 PROV.                        :  PROVINCE
 SRVC.             Halliburton:  SERVICE COMPANY
 STAT.                        :  STATE
 WELL.                Oredo 16:  WELL
 LOC .                        :  LOCATION
 LMF .                      KB:  LOG MEASURED FROM
 BAP .ft                0.0000:  GL ELEV ONSHORE
 GVFD.g                 1.0000:  GRAVITY FIELD
~Parameter Information Block
#MNEM.UNIT       Value        Description
#---------     -----------    ---------------------------
 BARI.                     OFF:  BARITE CORR 
 DCS .               25-Dec-19:  DateCircEndT 
 ENGI.          OLUCHI OHANEHI:  Engineer Name 
 IQVR.     WL INSITE R6.2.1 (Build 2):  WLIQ Version 
 LTYP.                     RAW:  LogDataType 
 RUN .                       3:  Run Number 
 SCT1.               26-Dec-19:  StartDateRun1 
 SVCN.     QUAD COMBO TOOLSTRING:  Service Name 
 SVCS.     RWCH, GTET, DSNT, SDLT, WSTT-I Receivers, ACRt Sonde:  Services 
 TCS .                   17 14:  Time Ciculation Ended 
 TDCE.ucts  17.14.51 25-Dec-19:  Time Circ End 
~Curve Information Block
#MNEM.UNIT                 API CODE     Curve Description
#---------               -----------    ---------------------------
 DEPT.ft                00 000 000 000:  Depth
 TENS.lbs               00 000 000 000:  Tension
 BHVT.ft3               00 000 000 000:  Borehole Volume
 AHVT.ft3               00 000 000 000:  Annular Volume
 DHTN.lbs               00 000 000 000:  CH Tension
 BITSIZE.in             00 000 000 000:  Bit Size
 GR  .api               00 000 000 000:  Gamma API
 CALI.in                00 000 000 000:  Caliper
 MMK .                  00 000 000 000:  Minute Mark
 RT10.ohmm              00 000 000 000:  10in Resistivity 2ft Res
 RT20.ohmm              00 000 000 000:  20in Resistivity 2ft Res
 RT30.ohmm              00 000 000 000:  30in Resistivity 2ft Res
 RT60.ohmm              00 000 000 000:  60in Resistivity 2ft Res
 RT90.ohmm              00 000 000 000:  90in Resistivity 2ft Res
 DRHO.g/cc              00 000 000 000:  DensityCorr
 PE  .                  00 000 000 000:  Pe
 RHOB.g/cc              00 000 000 000:  Density
 MDT .uspf              00 000 000 000:  MonoDeltaT
 NPHI.pu                00 000 000 000:  Neutron Porosity
 DXDT.uspf              00 000 000 000:  DipXDeltaT
 DYDT.uspf              00 000 000 000:  DipYDeltaT
#Other Information
#
#WARRANTY: Halliburton will use its best efforts to furnish customers with 
#accurate information and interpretations that are part of, and incident to, the services 
#provided.  However, Halliburton cannot and does not warrant the accuracy 
#or correctness of such information and interpretations.  Under no circumstances should any 
#such information or interpretation be relied upon as the sole basis for any drilling, 
#completion, production, or financial decision or any procedure involving any risk to the 
#safety of any drilling venture, drilling rig or its crew or any other third party.  The 
#Customer has full responsibility for all drilling, completion and production operation.  
#Halliburton makes no representations or warranties, either expressed or 
#implied, including, but not limited to, the implied warranties of merchantability or fitness 
#for a particular purpose, with respect to the services rendered.  In no event will 
#Halliburton be liable for failure to obtain any particular results or for 
#any damages, including, but not limited to, indirect, special or consequential damages, 
#resulting from the use of any information or interpretation provided by Halliburton.
#
~A    DEPT      TENS      BHVT      AHVT      DHTN    BITSIZE    GR     CALI    MMK     RT10      RT20      RT30      RT60      RT90     DRHO     PE     RHOB     MDT     NPHI     DXDT     DYDT   
# ...
    6938.5000 4562.1924 4537.0532 1751.9006 1971.7529 12.2500  49.4241 12.1434 0.0000   19.6982   40.9272   76.1027  115.6443  107.8609  0.0620  1.7429  2.2221  94.5859 32.6194 182.5407 181.9082
    6938.7500 4564.0151 4536.8521 1751.8259 1971.7529 12.2500  51.6175 12.1448 0.0000   19.8052   41.2844   77.3612  118.3973  109.4801  0.0593  1.7550  2.2130  94.5859 33.6822 182.5407 181.9082
    6939.0000 4565.6099 4536.6509 1751.7511 1971.2332 12.2500  52.8809 12.1477 0.0000   19.7337   41.1683   77.6089  119.4928  109.5309  0.0572  1.7553  2.2090  94.3416 33.1183 183.5056 181.4037
    6939.2500 4565.6406 4536.4497 1751.6761 1971.9535 12.2500  53.1399 12.1474 0.0000   19.3930   40.3574   76.4003  118.2309  107.4148  0.0559  1.7439  2.2088  94.3416 33.3906 183.5056 181.4037
    6939.5000 4565.6099 4536.2485 1751.6013 1971.9535 12.2500  53.3910 12.1411 0.0000   18.7967   38.8843   73.7932  114.6883  103.2689  0.0544  1.7391  2.2099  93.7953 34.3420 184.0138 181.3780
    6939.7500 4565.9175 4536.0474 1751.5266 1973.4131 12.2500  52.2924 12.1410 0.0000   18.0582   37.0274   70.3360  109.7012   97.9151  0.0535  1.7153  2.2120  93.7953 34.4891 184.0138 181.3780
    6940.0000 4566.4385 4535.8462 1751.4519 1973.4131 12.2500  51.0760 12.1381 0.0000   17.3388   35.1801   66.8214  104.5182   92.5215  0.0521  1.6890  2.2126  92.7785 33.4634 183.2118 181.1733
    6940.2500 4566.8013 4535.6455 1751.3773 1973.5730 12.2500  49.9067 12.1388 0.0000   16.7816   33.6890   63.9491  100.2465   88.0821  0.0511  1.6692  2.2120  92.7785 32.2123 183.2118 181.1733
    6940.5000 4567.3696 4535.4448 1751.3027 1973.5730 12.2500  49.0788 12.1377 0.0000   16.4706   32.7616   62.1468   97.5799   85.1914  0.0508  1.6498  2.2117  91.7652 31.9907 181.2808 180.0751
    6940.7500 4568.0952 4535.2441 1751.2281 1974.0328 12.2500  48.6432 12.1421 0.0000   16.4295   32.4699   61.5720   96.7822   84.0470  0.0508  1.6551  2.2129  91.7652 32.9274 181.2808 180.0751
    6941.0000 4569.3662 4535.0430 1751.1534 1974.0328 12.2500  47.8075 12.1484 0.0000   16.6680   32.8507   62.3148   98.0185   84.7661  0.0513  1.6794  2.2140  91.4704 31.8632 179.8911 178.7640
    6941.2500 4570.8105 4534.8418 1751.0785 1974.5127 12.2500  46.7559 12.1480 0.0000   17.2198   33.9889   64.5518  101.5695   87.5722  0.0520  1.7075  2.2161  91.4704 31.0364 179.8911 178.7640
    6941.5000 4573.0674 4534.6406 1751.0035 1974.5127 12.2500  45.1589 12.1519 0.0000   18.1331   35.9969   68.5147  107.7975   92.7697  0.0525  1.7312  2.2166  91.6299 29.9671 179.1770 178.3934
    6941.7500 4575.6245 4534.4395 1750.9285 1975.4128 12.2500  42.6006 12.1481 0.0000   19.4259   38.9199   74.3033  116.8425  100.4748  0.0523  1.7301  2.2141  91.6054 31.4427 178.3158 178.3607
    6942.0000 4577.4165 4534.2383 1750.8535 1975.4128 12.2500  40.2503 12.1371 0.0000   21.0037   42.5484   81.5250  128.0923  110.1555  0.0520  1.6951  2.2129  91.6054 31.5630 178.3158 178.3607
    6942.2500 4578.2134 4534.0376 1750.7789 1976.5326 12.2500  37.4958 12.1348 0.0000   22.5804   46.2274   88.9009  139.5677  120.0760  0.0517  1.6384  2.2122  91.2444 31.0522 177.2831 177.2014
    6942.5000 4577.7871 4533.8369 1750.7045 1976.5326 12.2500  35.2984 12.1348 0.0000   23.6967   48.8762   94.2931  148.0060  127.3611  0.0517  1.5823  2.2126  91.2444 30.7567 177.2831 177.2014
    6942.7500 4578.0239 4533.6362 1750.6300 1977.9926 12.2500  34.4744 12.1396 0.0000   23.9507   49.5191   95.7359  150.4116  129.3609  0.0526  1.5411  2.2147  90.8552 30.5560 176.9317 175.3678
    6943.0000 4577.7163 4533.4351 1750.5554 1978.3525 12.2500  34.7648 12.1379 0.0000   23.2907   47.9966   92.8789  146.2486  125.6117  0.0528  1.5302  2.2166  90.8552 30.2683 176.9317 175.3678
    6943.2500 4575.6953 4533.2344 1750.4808 1978.3525 12.2500  35.7732 12.1382 0.0000   22.0198   45.0107   87.0912  137.5631  117.9389  0.0518  1.5416  2.2182  90.8166 29.3324 177.5544 174.5233
    6943.5000 4573.5728 4533.0337 1750.4063 1978.8525 12.2500  37.5978 12.1382 0.0000   20.5728   41.5941   80.4204  127.4677  109.0973  0.0510  1.5552  2.2221  90.8166 29.5998 177.5544 174.5233
    6943.7500 4573.5020 4532.8330 1750.3317 1978.8525 12.2500  38.6964 12.1356 0.0000   19.3247   38.6273   74.6122  118.6505  101.4388  0.0503  1.5632  2.2280  90.9986 30.1905 178.3226 175.0720
    6944.0000 4574.5435 4532.6323 1750.2572 1977.9324 12.2500  39.9520 12.1296 0.0000   18.5000   36.6204   70.6818  112.7231   96.3593  0.0499  1.5548  2.2317  90.9986 30.5087 178.3226 175.0720
    6944.2500 4575.5142 4532.4316 1750.1829 1977.9324 12.2500  41.6981 12.1327 0.0000   18.1617   35.7111   68.9037  110.1456   94.2471  0.0508  1.5413  2.2349  91.4081 30.1494 178.4755 176.0043
    6944.5000 4575.0488 4532.2310 1750.1085 1977.7926 12.2500  42.6830 12.1326 0.0000   18.2494   35.7697   69.0317  110.5647   94.7933  0.0499  1.5362  2.2340  91.4081 30.2922 178.4755 176.0043
    6944.7500 4573.7700 4532.0303 1750.0342 1977.7926 12.2500  43.5855 12.1427 0.0000   18.6224   36.5036   70.4990  113.1012   97.2350  0.0480  1.5455  2.2290  92.0082 30.7505 178.5355 176.8688
    6945.0000 4572.4209 4531.8291 1749.9595 1978.5928 12.2500  44.3349 12.1438 0.0000   19.1153   37.5660   72.6342  116.7108  100.6663  0.0473  1.5763  2.2238  92.0082 30.6327 178.5355 176.8688
    6945.2500 4571.9546 4531.6279 1749.8848 1978.5928 12.2500  44.1113 12.1418 0.0000   19.6035   38.6850   74.9064  120.5517  104.3498  0.0462  1.6119  2.2161  92.3583 29.7923 179.1628 177.8890
    6945.5000 4570.8652 4531.4268 1749.8101 1977.9525 12.2500  44.3271 12.1433 0.0000   20.0292   39.7187   77.0364  124.1814  107.8950  0.0468  1.6431  2.2088  92.3583 30.5001 179.1628 177.8890
    6945.7500 4569.0820 4531.2256 1749.7354 1977.9525 12.2500  44.1309 12.1404 0.0000   20.3831   40.6239   78.9328  127.4373  111.1524  0.0479  1.6614  2.2032  92.5389 31.0645 180.1411 178.9276
    6946.0000 4567.5195 4531.0244 1749.6606 1977.3724 12.2500  43.9229 12.1376 0.0000   20.6765   41.4063   80.5991  130.3097  114.1090  0.0482  1.6662  2.1977  92.5389 31.9621 180.1411 178.9276
    6946.2500 4567.2192 4530.8237 1749.5861 1977.3724 12.2500  44.5743 12.1389 0.0000   20.9270   42.0910   82.0732  132.8293  116.7860  0.0482  1.6672  2.1943  92.8131 31.2118 180.3544 179.2964
    6946.5000 4568.3950 4530.6230 1749.5115 1977.0525 12.2500  44.9196 12.1305 0.0000   21.1411   42.6845   83.3560  134.9758  119.1610  0.0476  1.6664  2.1906  92.8131 32.8256 180.3544 179.2964
    6946.7500 4569.9268 4530.4224 1749.4371 1975.7728 12.2500  46.2772 12.1251 0.0000   21.3098   43.1636   84.3834  136.6149  121.1069  0.0474  1.6632  2.1864  93.3607 33.2635 179.4905 178.8594
    6947.0000 4571.3789 4530.2217 1749.3630 1975.7728 12.2500  47.0816 12.1237 0.0000   21.4187   43.4946   85.0694  137.5849  122.4714  0.0474  1.6587  2.1843  93.3607 33.5027 179.4905 178.8594
    6947.2500 4572.1362 4530.0215 1749.2889 1976.3326 12.2500  47.2150 12.1253 0.0000   21.4585   43.6544   85.3441  137.7452  123.1175  0.0474  1.6550  2.1812  93.8124 33.1012 178.3175 178.1676
    6947.5000 4573.8096 4529.8208 1749.2148 1976.3326 12.2500  46.9168 12.1241 0.0000   21.4387   43.6588   85.2188  137.1038  123.0451  0.0477  1.6503  2.1827  93.8124 33.0102 178.3175 178.1676
    6947.7500 4575.6484 4529.6206 1749.1407 1977.9729 12.2500  44.7312 12.1269 0.0000   21.3615   43.5071   84.6718  135.6186  122.2068  0.0479  1.6521  2.1871  93.7083 32.3851 177.4550 177.8988
    6948.0000 4576.0747 4529.4199 1749.0665 1977.9729 12.2500  43.4364 12.1352 0.0000   21.1913   43.1179   83.5315  133.0330  120.3584  0.0487  1.6542  2.1912  93.7083 31.7944 177.4550 177.8988
    6948.2500 4576.0747 4529.2192 1748.9921 1979.3324 12.2500  42.7536 12.1367 0.0000   20.8838   42.3924   81.6017  129.0660  117.2294  0.0499  1.6580  2.1994  93.3251 31.8817 177.4031 178.2138
    6948.5000 4576.4063 4529.0186 1748.9175 1979.3324 12.2500  43.2323 12.1356 0.0000   20.4510   41.3486   78.9356  123.8571  112.9374  0.0514  1.6655  2.2051  93.3251 31.7144 177.4031 178.2138
    6948.7500 4576.8794 4528.8179 1748.8430 1980.9119 12.2500  44.1113 12.1277 0.0000   19.9728   40.1422   75.8597  117.9681  107.9905  0.0532  1.6803  2.2068  93.2294 31.4638 177.8803 178.7888
