~Version Information
 VERS.                  2.0:   CWLS log ASCII Standard -VERSION 2.0
 WRAP.                   NO:   One line per depth step
~Well Information Block
#MNEM.UNIT     VALUE/NAME     DESCRIPTION
#---------     -----------    ---------------------------
 STRT.F              6550.0000: START DEPTH
 STOP.F             12465.0000: STOP DEPTH
 STEP.F                 0.2500: STEP DEPTH
 NULL.                 -999.25: NULL VALUE
 DMF .                      KB:  DRILL MEAS FROM
 PDAT.                      GL:  PERMANENT DATUM
 DATE.             25-Dec-2019:  DATE
 SVCO.             Halliburton:  SERVICECONAME
 HIDE.                        :  WELLNAMEOPERAT
 BASI.                   BACIA:  BASIN
 UWI .                     N/A:  UNIQUE WELL IDENTIFIER
 API .                     N/A:  API NUMBER
 RANG.                     N/A:  RANGE
 TOWN.                     N/A:  TOWNSHIP
 SECT.                     N/A:  SECTION
 SON .                     N/A:  JOB NUMBER
 CNTY.                        :  COUNTY
 COMP.                        :  COMPANY
 CTRY.                        :  COUNTRY
 FLD .                   Oredo:  FIELD
 PROV.                        :  PROVINCE
 SRVC.             Halliburton:  SERVICE COMPANY
 STAT.                        :  STATE
 WELL.                Oredo 16:  WELL
 LOC .                        :  LOCATION
 LMF .                      KB:  LOG MEASURED FROM
 BAP .ft                0.0000:  GL ELEV ONSHORE
 GVFD.g                 1.0000:  GRAVITY FIELD
~Parameter Information Block
#MNEM.UNIT       Value        Description
#---------     -----------    ---------------------------
 BARI.                     OFF:  BARITE CORR 
 DCS .               25-Dec-19:  DateCircEndT 
 ENGI.          OLUCHI OHANEHI:  Engineer Name 
 IQVR.     WL INSITE R6.2.1 (Build 2):  WLIQ Version 
 LTYP.                     RAW:  LogDataType 
 RUN .                       3:  Run Number 
 SCT1.               26-Dec-19:  StartDateRun1 
 SVCN.     QUAD COMBO TOOLSTRING:  Service Name 
 SVCS.     RWCH, GTET, DSNT, SDLT, WSTT-I Receivers, ACRt Sonde:  Services 
 TCS .                   17 14:  Time Ciculation Ended 
 TDCE.ucts  17.14.51 25-Dec-19:  Time Circ End 
~Curve Information Block
#MNEM.UNIT                 API CODE     Curve Description
#---------               -----------    ---------------------------
 DEPT.ft                00 000 000 000:  Depth
 TENS.lbs               00 000 000 000:  Tension
 BHVT.ft3               00 000 000 000:  Borehole Volume
 AHVT.ft3               00 000 000 000:  Annular Volume
 DHTN.lbs               00 000 000 000:  CH Tension
 BITSIZE.in             00 000 000 000:  Bit Size
 GR  .api               00 000 000 000:  Gamma API
 CALI.in                00 000 000 000:  Caliper
 MMK .                  00 000 000 000:  Minute Mark
 RT10.ohmm              00 000 000 000:  10in Resistivity 2ft Res
 RT20.ohmm              00 000 000 000:  20in Resistivity 2ft Res
 RT30.ohmm              00 000 000 000:  30in Resistivity 2ft Res
 RT60.ohmm              00 000 000 000:  60in Resistivity 2ft Res
 RT90.ohmm              00 000 000 000:  90in Resistivity 2ft Res
 DRHO.g/cc              00 000 000 000:  DensityCorr
 PE  .                  00 000 000 000:  Pe
 RHOB.g/cc              00 000 000 000:  Density
 MDT .uspf              00 000 000 000:  MonoDeltaT
 NPHI.pu                00 000 000 000:  Neutron Porosity
 DXDT.uspf              00 000 000 000:  DipXDeltaT
 DYDT.uspf              00 000 000 000:  DipYDeltaT
#Other Information
#
#WARRANTY: Halliburton will use its best efforts to furnish customers with 
#accurate information and interpretations that are part of, and incident to, the services 
#provided.  However, Halliburton cannot and does not warrant the accuracy 
#or correctness of such information and interpretations.  Under no circumstances should any 
#such information or interpretation be relied upon as the sole basis for any drilling, 
#completion, production, or financial decision or any procedure involving any risk to the 
#safety of any drilling venture, drilling rig or its crew or any other third party.  The 
#Customer has full responsibility for all drilling, completion and production operation.  
#Halliburton makes no representations or warranties, either expressed or 
#implied, including, but not limited to, the implied warranties of merchantability or fitness 
#for a particular purpose, with respect to the services rendered.  In no event will 
#Halliburton be liable for failure to obtain any particular results or for 
#any damages, including, but not limited to, indirect, special or consequential damages, 
#resulting from the use of any information or interpretation provided by Halliburton.
#
~A    DEPT      TENS      BHVT      AHVT      DHTN    BITSIZE    GR     CALI    MMK     RT10      RT20      RT30      RT60      RT90     DRHO     PE     RHOB     MDT     NPHI     DXDT     DYDT   
# ...
   10865.5000 6111.6479 1338.5416  532.1796 2243.3623 12.2500  95.7405 12.3681 0.0000    1.9043    1.9060    1.8759    1.8192    1.8073  0.0513  2.7162  2.5310  98.5743 38.1106 217.2726 209.0389
   10865.7500 6110.0215 1338.3330  532.0973 2243.3623 12.2500  95.5836 12.3676 0.0000    1.8805    1.8810    1.8509    1.7932    1.7825  0.0509  2.6609  2.5267  98.5743 37.1953 217.2726 209.0389
   10866.0000 6108.6328 1338.1244  532.0151 2249.5217 12.2500  97.5298 12.3671 0.0000    1.8582    1.8573    1.8271    1.7684    1.7588  0.0503  2.6078  2.5222  99.2534 37.8666 219.6317 209.7972
   10866.2500 6106.1636 1337.9159  531.9329 2249.5217 12.2500  99.3033 12.3656 0.0000    1.8382    1.8355    1.8051    1.7452    1.7367  0.0505  2.5647  2.5200  99.2534 37.8847 219.6317 209.7972
   10866.5000 6101.3647 1337.7074  531.8507 2248.4021 12.2500 101.3869 12.3651 0.0000    1.8195    1.8150    1.7840    1.7230    1.7157  0.0509  2.5488  2.5193 100.4740 40.3623 222.1463 211.7158
   10866.7500 6097.6470 1337.4989  531.7686 2248.4021 12.2500 101.6184 12.3619 0.0000    1.8010    1.7943    1.7624    1.7004    1.6942  0.0516  2.5628  2.5213 100.4740 39.7860 222.1463 211.7158
   10867.0000 6096.8901 1337.2905  531.6865 2246.7622 12.2500 100.5629 12.3592 0.0000    1.7803    1.7709    1.7381    1.6755    1.6703  0.0523  2.6105  2.5204 101.8861 41.1361 223.7403 215.0264
   10867.2500 6098.2080 1337.0823  531.6046 2242.0024 12.2500  98.9659 12.3580 0.0000    1.7541    1.7413    1.7077    1.6451    1.6409  0.0535  2.6836  2.5208 101.8861 41.0453 223.7403 215.0264
   10867.5000 6100.0854 1336.8740  531.5226 2242.0024 12.2500  97.1295 12.3565 0.0000    1.7199    1.7034    1.6692    1.6073    1.6042  0.0543  2.7538  2.5166 102.9017 39.5358 225.4600 218.7093
   10867.7500 6102.1543 1336.6659  531.4408 2233.4834 12.2500  96.6195 12.3577 0.0000    1.6805    1.6603    1.6256    1.5651    1.5629  0.0545  2.8126  2.5096 102.9017 38.7470 225.4600 218.7093
   10868.0000 6104.0083 1336.4576  531.3589 2233.4834 12.2500  96.9530 12.3499 0.0000    1.6436    1.6200    1.5850    1.5259    1.5244  0.0541  2.8452  2.5011 103.0821 37.7461 227.7905 221.5881
   10868.2500 6105.6348 1336.2496  531.2772 2237.0833 12.2500  96.8784 12.3519 0.0000    1.6159    1.5895    1.5540    1.4957    1.4949  0.0533  2.8559  2.4920 103.0821 38.4797 227.7905 221.5881
   10868.5000 6107.8281 1336.0416  531.1955 2237.0833 12.2500  95.8229 12.3502 0.0000    1.5988    1.5701    1.5338    1.4758    1.4756  0.0525  2.8559  2.4889 102.7543 37.9590 229.7921 223.6891
   10868.7500 6109.6592 1335.8336  531.1138 2238.8433 12.2500  94.2299 12.3495 0.0000    1.5890    1.5586    1.5215    1.4633    1.4637  0.0522  2.8351  2.4913 102.7543 37.6324 229.7921 223.6891
   10869.0000 6111.1748 1335.6256  531.0322 2238.8433 12.2500  92.4171 12.3513 0.0000    1.5822    1.5505    1.5126    1.4540    1.4550  0.0518  2.7923  2.4971 102.5781 37.1365 230.3455 225.6675
   10869.2500 6113.5576 1335.4176  530.9505 2241.3425 12.2500  91.9815 12.3522 0.0000    1.5751    1.5425    1.5038    1.4451    1.4466  0.0512  2.7282  2.5013 102.7300 40.2681 230.2249 228.0961
   10869.5000 6114.4180 1335.2096  530.8688 2241.3425 12.2500  92.8487 12.3510 0.0000    1.5670    1.5337    1.4945    1.4358    1.4378  0.0494  2.6586  2.4993 102.7300 42.0257 230.2249 228.0961
   10869.7500 6111.2935 1335.0016  530.7871 2244.1421 12.2500  94.5124 12.3517 0.0000    1.5586    1.5245    1.4849    1.4264    1.4288  0.0472  2.6011  2.4925 102.9995 43.5202 230.1664 230.5315
   10870.0000 6107.6230 1334.7936  530.7054 2244.1421 12.2500  96.6234 12.3543 0.0000    1.5500    1.5153    1.4754    1.4171    1.4199  0.0461  2.5675  2.4837 102.9995 40.6339 230.1664 230.5315
   10870.2500 6104.9551 1334.5854  530.6236 2250.1816 12.2500  97.6593 12.3558 0.0000    1.5412    1.5059    1.4659    1.4079    1.4111  0.0446  2.5604  2.4751 103.2902 41.4897 230.0081 232.2938
   10870.5000 6102.4067 1334.3773  530.5417 2250.1816 12.2500  97.2904 12.3567 0.0000    1.5323    1.4965    1.4564    1.3988    1.4024  0.0451  2.5645  2.4694 103.2902 42.8804 230.0081 232.2938
   10870.7500 6099.3442 1334.1691  530.4599 2249.0017 12.2500  94.7282 12.3564 0.0000    1.5240    1.4879    1.4478    1.3906    1.3945  0.0451  2.5840  2.4635 103.6326 45.4678 228.7478 233.6031
   10871.0000 6096.9688 1333.9609  530.3781 2249.0017 12.2500  92.6917 12.3575 0.0000    1.5174    1.4811    1.4410    1.3843    1.3885  0.0448  2.6141  2.4604 103.6326 43.5855 228.7478 233.6031
   10871.2500 6094.5454 1333.7527  530.2961 2243.8823 12.2500  92.2248 12.3584 0.0000    1.5139    1.4777    1.4375    1.3810    1.3854  0.0451  2.6382  2.4560 104.0836 41.4675 226.3415 234.4397
   10871.5000 6093.6699 1333.5444  530.2142 2243.8823 12.2500  92.8173 12.3587 0.0000    1.5150    1.4789    1.4386    1.3820    1.3868  0.0439  2.6609  2.4533 104.0836 40.0712 226.3415 234.4397
   10871.7500 6095.5723 1333.3362  530.1323 2242.1423 12.2500  94.2495 12.3580 0.0000    1.5210    1.4852    1.4446    1.3876    1.3927  0.0434  2.6563  2.4519 104.7592 38.5759 224.2793 234.9770
   10872.0000 6096.6294 1333.1279  530.0504 2235.5032 12.2500  95.3678 12.3559 0.0000    1.5305    1.4951    1.4540    1.3965    1.4019  0.0423  2.6247  2.4488 104.7592 37.8582 224.2793 234.9770
   10872.2500 6095.1851 1332.9198  529.9685 2235.5032 12.2500  96.3566 12.3541 0.0000    1.5418    1.5069    1.4655    1.4073    1.4131  0.0409  2.5990  2.4475 105.5091 39.2541 224.4320 235.3357
   10872.5000 6095.6660 1332.7117  529.8867 2234.7234 12.2500  96.6940 12.3553 0.0000    1.5540    1.5195    1.4776    1.4189    1.4250  0.0409  2.5720  2.4443 105.5091 40.8825 224.4320 235.3357
   10872.7500 6097.6714 1332.5035  529.8049 2234.7234 12.2500  96.7058 12.3558 0.0000    1.5652    1.5310    1.4887    1.4296    1.4359  0.0406  2.5620  2.4418 105.8847 40.1716 226.6258 235.9818
   10873.0000 6100.8672 1332.2954  529.7230 2237.7429 12.2500  96.2428 12.3614 0.0000    1.5717    1.5372    1.4948    1.4358    1.4424  0.0405  2.5621  2.4399 105.8847 40.6663  -999.25 235.9818
   10873.2500 6103.9053 1332.0870  529.6410 2237.7429 12.2500  96.7332 12.3659 0.0000    1.5692    1.5341    1.4920    1.4338    1.4405  0.0410  2.5338  2.4411 106.0046 43.5967  -999.25 236.4039
   10873.5000 6106.7476 1331.8785  529.5588 2236.1831 12.2500  97.7377 12.3652 0.0000    1.5568    1.5209    1.4795    1.4230    1.4297  0.0405  2.5041  2.4444 106.4094 46.5650  -999.25 235.7262
   10873.7500 6107.2993 1331.6700  529.4766 2236.1831 12.2500  98.6010 12.3651 0.0000    1.5392    1.5024    1.4620    1.4075    1.4143  0.0408  2.4808  2.4508 106.4094 42.2319  -999.25 235.7262
   10874.0000 6105.2402 1331.4615  529.3945 2240.1226 12.2500  99.3896 12.3655 0.0000    1.5253    1.4877    1.4482    1.3956    1.4023  0.0420  2.4642  2.4610 106.9738 41.2130  -999.25 234.2275
   10874.2500 6104.8208 1331.2531  529.3123 2240.1226 12.2500  99.8880 12.3646 0.0000    1.5236    1.4855    1.4464    1.3949    1.4017  0.0425  2.4773  2.4667 106.9738 40.0171  -999.25 234.2275
   10874.5000 6107.2993 1331.0446  529.2302 2246.5620 12.2500 100.1234 12.3638 0.0000    1.5381    1.5001    1.4608    1.4093    1.4164  0.0443  2.4816  2.4733 107.1507 40.2371  -999.25 232.7456
   10874.7500 6108.6499 1330.8362  529.1481 2246.5620 12.2500  99.6565 12.3654 0.0000    1.5669    1.5297    1.4899    1.4376    1.4450  0.0464  2.4669  2.4742 107.1507 38.7439  -999.25 232.7456
   10875.0000 6108.6650 1330.6277  529.0659 2242.2625 12.2500  97.1649 12.3644 0.0000    1.6037    1.5681    1.5276    1.4741    1.4819  0.0486  2.4460  2.4697 106.7592 38.6882  -999.25 232.1383
   10875.2500 6109.2881 1330.4192  528.9838 2242.2625 12.2500  93.4804 12.3649 0.0000    1.6408    1.6078    1.5668    1.5120    1.5203  0.0513  2.4246  2.4693 106.7592 39.1488  -999.25 232.1383
   10875.5000 6108.1997 1330.2107  528.9016 2243.6023 12.2500  89.2467 12.3646 0.0000    1.6742    1.6442    1.6031    1.5475    1.5562  0.0537  2.4161  2.4671 106.0016 40.0685  -999.25 231.6951
   10875.7500 6106.4795 1330.0022  528.8195 2247.9419 12.2500  86.0409 12.3643 0.0000    1.7031    1.6764    1.6357    1.5795    1.5886  0.0551  2.4217  2.4718 106.0016 40.3141  -999.25 231.6951
