~Version Information
 VERS.                  2.0:   CWLS log ASCII Standard -VERSION 2.0
 WRAP.                   NO:   One line per depth step
~Well Information Block
#MNEM.UNIT     VALUE/NAME     DESCRIPTION
#---------     -----------    ---------------------------
 STRT.F              6550.0000: START DEPTH
 STOP.F             12465.0000: STOP DEPTH
 STEP.F                 0.2500: STEP DEPTH
 NULL.                 -999.25: NULL VALUE
 DMF .                      KB:  DRILL MEAS FROM
 PDAT.                      GL:  PERMANENT DATUM
 DATE.             25-Dec-2019:  DATE
 SVCO.             Halliburton:  SERVICECONAME
 HIDE.                        :  WELLNAMEOPERAT
 BASI.                   BACIA:  BASIN
 UWI .                     N/A:  UNIQUE WELL IDENTIFIER
 API .                     N/A:  API NUMBER
 RANG.                     N/A:  RANGE
 TOWN.                     N/A:  TOWNSHIP
 SECT.                     N/A:  SECTION
 SON .                     N/A:  JOB NUMBER
 CNTY.                        :  COUNTY
 COMP.                        :  COMPANY
 CTRY.                        :  COUNTRY
 FLD .                   Oredo:  FIELD
 PROV.                        :  PROVINCE
 SRVC.             Halliburton:  SERVICE COMPANY
 STAT.                        :  STATE
 WELL.                Oredo 16:  WELL
 LOC .                        :  LOCATION
 LMF .                      KB:  LOG MEASURED FROM
 BAP .ft                0.0000:  GL ELEV ONSHORE
 GVFD.g                 1.0000:  GRAVITY FIELD
~Parameter Information Block
#MNEM.UNIT       Value        Description
#---------     -----------    ---------------------------
 BARI.                     OFF:  BARITE CORR 
 DCS .               25-Dec-19:  DateCircEndT 
 ENGI.          OLUCHI OHANEHI:  Engineer Name 
 IQVR.     WL INSITE R6.2.1 (Build 2):  WLIQ Version 
 LTYP.                     RAW:  LogDataType 
 RUN .                       3:  Run Number 
 SCT1.               26-Dec-19:  StartDateRun1 
 SVCN.     QUAD COMBO TOOLSTRING:  Service Name 
 SVCS.     RWCH, GTET, DSNT, SDLT, WSTT-I Receivers, ACRt Sonde:  Services 
 TCS .                   17 14:  Time Ciculation Ended 
 TDCE.ucts  17.14.51 25-Dec-19:  Time Circ End 
~Curve Information Block
#MNEM.UNIT                 API CODE     Curve Description
#---------               -----------    ---------------------------
 DEPT.ft                00 000 000 000:  Depth
 TENS.lbs               00 000 000 000:  Tension
 BHVT.ft3               00 000 000 000:  Borehole Volume
 AHVT.ft3               00 000 000 000:  Annular Volume
 DHTN.lbs               00 000 000 000:  CH Tension
 BITSIZE.in             00 000 000 000:  Bit Size
 GR  .api               00 000 000 000:  Gamma API
 CALI.in                00 000 000 000:  Caliper
 MMK .                  00 000 000 000:  Minute Mark
 RT10.ohmm              00 000 000 000:  10in Resistivity 2ft Res
 RT20.ohmm              00 000 000 000:  20in Resistivity 2ft Res
 RT30.ohmm              00 000 000 000:  30in Resistivity 2ft Res
 RT60.ohmm              00 000 000 000:  60in Resistivity 2ft Res
 RT90.ohmm              00 000 000 000:  90in Resistivity 2ft Res
 DRHO.g/cc              00 000 000 000:  DensityCorr
 PE  .                  00 000 000 000:  Pe
 RHOB.g/cc              00 000 000 000:  Density
 MDT .uspf              00 000 000 000:  MonoDeltaT
 NPHI.pu                00 000 000 000:  Neutron Porosity
 DXDT.uspf              00 000 000 000:  DipXDeltaT
 DYDT.uspf              00 000 000 000:  DipYDeltaT
#Other Information
#
#WARRANTY: Halliburton will use its best efforts to furnish customers with 
#accurate information and interpretations that are part of, and incident to, the services 
#provided.  However, Halliburton cannot and does not warrant the accuracy 
#or correctness of such information and interpretations.  Under no circumstances should any 
#such information or interpretation be relied upon as the sole basis for any drilling, 
#completion, production, or financial decision or any procedure involving any risk to the 
#safety of any drilling venture, drilling rig or its crew or any other third party.  The 
#Customer has full responsibility for all drilling, completion and production operation.  
#Halliburton makes no representations or warranties, either expressed or 
#implied, including, but not limited to, the implied warranties of merchantability or fitness 
#for a particular purpose, with respect to the services rendered.  In no event will 
#Halliburton be liable for failure to obtain any particular results or for 
#any damages, including, but not limited to, indirect, special or consequential damages, 
#resulting from the use of any information or interpretation provided by Halliburton.
#
~A    DEPT      TENS      BHVT      AHVT      DHTN    BITSIZE    GR     CALI    MMK     RT10      RT20      RT30      RT60      RT90     DRHO     PE     RHOB     MDT     NPHI     DXDT     DYDT   
# ...
    8513.5000 5154.3818 3257.8706 1264.4789 1771.8357 12.2500 100.4177 12.3146 0.0000    7.9078    7.8836    7.9348    7.9301    7.7262  0.0386  2.7971  2.4831  89.6650 34.7466 162.1403 165.0547
    8513.7500 5154.5391 3257.6638 1264.3984 1771.8357 12.2500 101.3280 12.3147 0.0000    7.6844    7.6347    7.6872    7.6813    7.4889  0.0357  2.8334  2.4883  90.2397 36.7590 163.2128 166.4435
    8514.0000 5154.6191 3257.4570 1264.3180 1772.5159 12.2500 103.3409 12.3064 0.0000    7.4880    7.4277    7.4806    7.4735    7.2907  0.0327  2.8299  2.4948  90.2397 38.9284 163.2128 166.4435
    8514.2500 5155.7476 3257.2505 1264.2378 1772.5159 12.2500 107.2058 12.3040 0.0000    7.3591    7.2990    7.3546    7.3463    7.1690  0.0297  2.7944  2.4989  90.2397 39.4622 163.2128 166.4435
    8514.5000 5157.9888 3257.0439 1264.1577 1772.2959 12.2500 112.5108 12.3009 0.0000    7.3279    7.2775    7.3389    7.3292    7.1522  0.0278  2.7799  2.5065  90.9746 38.3586 164.5048 167.7593
    8514.7500 5159.5273 3256.8376 1264.0778 1771.6357 12.2500 117.9767 12.2994 0.0000    7.4101    7.3789    7.4494    7.4383    7.2558  0.0270  2.8443  2.5099  90.9746 37.4491 164.5048 167.7593
    8515.0000 5159.5981 3256.6313 1263.9978 1771.6357 12.2500 125.4083 12.3192 0.0000    7.5982    7.5973    7.6798    7.6669    7.4744  0.0253  2.9717  2.5129  91.3887 36.3198 165.9161 168.8506
    8515.2500 5158.7705 3256.4243 1263.9172 1773.6959 12.2500 130.9487 12.3941 0.0000    7.8478    7.8893    7.9861    7.9709    7.7669  0.0205  3.1349  2.5139  91.3887 35.5238 165.9161 168.8506
    8515.5000 5157.9644 3256.2148 1263.8341 1773.6959 12.2500 136.2576 12.4336 0.0000    8.0797    8.1742    8.2867    8.2690    8.0557  0.0141  3.2454  2.5058  91.2110 34.2863 167.6272 170.1726
    8515.7500 5157.6172 3256.0042 1263.7496 1774.9501 12.2500 140.1461 12.4700 0.0000    8.2156    8.3695    8.4976    8.4772    8.2576  0.0082  3.2403  2.4955  91.2110 33.5358 167.6272 170.1726
    8516.0000 5157.9336 3255.7922 1263.6639 1774.9501 12.2500 141.1584 12.4507 0.0000    8.2146    8.4275    8.5696    8.5464    8.3235  0.0058  3.1352  2.4808  90.6121 32.8770 169.2355 171.5709
    8516.2500 5159.9297 3255.5808 1263.5789 1774.3154 12.2500 140.5424 12.3039 0.0000    8.0800    8.3447    8.4984    8.4726    8.2504  0.0124  2.9593  2.4670  90.6121 32.6370 169.2355 171.5709
    8516.5000 5163.2051 3255.3743 1263.4988 1774.0557 12.2500 137.3327 12.2962 0.0000    7.8510    8.1564    8.3191    8.2907    8.0723  0.0225  2.7684  2.4497  90.6121 32.5858 169.2355 171.5709
    8516.7500 5166.4883 3255.1682 1263.4189 1774.0557 12.2500 133.3697 12.2280 0.0000    7.5820    7.9162    8.0856    8.0547    7.8418  0.0323  2.6059  2.4273  90.2733 32.7923 170.5319 172.6782
    8517.0000 5167.3179 3254.9644 1263.3414 1775.2955 12.2500 128.1667 12.2144 0.0000    7.3202    7.6730    7.8478    7.8143    7.6069  0.0401  2.4628  2.4006  90.2733 32.6776 170.5319 172.6782
    8517.2500 5166.5283 3254.7610 1263.2643 1775.2955 12.2500 122.6381 12.2015 0.0000    7.1003    7.4645    7.6438    7.6076    7.4048  0.0432  2.3472  2.3698  90.8088 32.7180 171.2842 173.6068
    8517.5000 5165.8486 3254.5581 1263.1876 1777.9553 12.2500 117.2586 12.1940 0.0000    6.9417    7.3133    7.4967    7.4577    7.2577  0.0430  2.2587  2.3445  90.8088 32.8325 171.2842 173.6068
    8517.7500 5164.1284 3254.3555 1263.1112 1777.9553 12.2500 112.1106 12.1863 0.0000    6.8455    7.2227    7.4102    7.3681    7.1691  0.0451  2.1895  2.3307  92.1634 33.3289 171.6352 174.6654
    8518.0000 5161.5479 3254.1531 1263.0350 1778.5349 12.2500 108.4693 12.1866 0.0000    6.8015    7.1839    7.3753    7.3299    7.1303  0.0484  2.1656  2.3310  92.1634 32.5741 171.6352 174.6654
    8518.2500 5160.7666 3253.9507 1262.9589 1778.4349 12.2500 106.4446 12.1841 0.0000    6.7967    7.1848    7.3796    7.3310    7.1294  0.0504  2.1857  2.3444  92.1634 33.2076 171.6352 174.6654
    8518.5000 5160.1348 3253.7483 1262.8828 1778.4349 12.2500 105.2753 12.1859 0.0000    6.8166    7.2110    7.4087    7.3569    7.1522  0.0555  2.2805  2.3716  93.2017 32.7600 171.7786 175.7560
    8518.7500 5158.9043 3253.5459 1262.8066 1777.1752 12.2500 104.6868 12.1865 0.0000    6.8485    7.2494    7.4489    7.3942    7.1860  0.0557  2.4509  2.3999  93.2017 33.9929 171.7786 175.7560
    8519.0000 5157.5942 3253.3435 1262.7305 1777.1752 12.2500 103.5763 12.2032 0.0000    6.8822    7.2885    7.4885    7.4312    7.2193  0.0523  2.6365  2.4266  93.2135 33.9558 172.0116 176.6380
    8519.2500 5158.1074 3253.1404 1262.6537 1777.2955 12.2500 101.6890 12.2083 0.0000    6.9008    7.3093    7.5082    7.4486    7.2337  0.0480  2.7793  2.4424  93.2135 34.8027 172.0116 176.6380
    8519.5000 5158.7227 3252.9373 1262.5768 1777.2955 12.2500 100.7747 12.2068 0.0000    6.8866    7.2918    7.4872    7.4262    7.2095  0.0386  2.7880  2.4386  92.7542 33.6636 172.1026 176.8460
    8519.7500 5159.2114 3252.7341 1262.4999 1776.1354 12.2500 102.0068 12.1951 0.0000    6.8427    7.2379    7.4276    7.3658    7.1488  0.0315  2.6540  2.4254  92.7542 34.0877 172.1026 176.8460
    8520.0000 5160.0249 3252.5313 1262.4235 1776.1354 12.2500 103.9766 12.1902 0.0000    6.7923    7.1712    7.3537    7.2916    7.0752  0.0273  2.4508  2.4030  92.6131 34.3590 171.1156 175.6358
    8520.2500 5161.5005 3252.3286 1262.3472 1776.0154 12.2500 106.5820 12.1899 0.0000    6.7518    7.1084    7.2832    7.2210    7.0054  0.0240  2.2498  2.3834  92.6131 33.3296 171.1156 175.6358
    8520.5000 5162.6211 3252.1260 1262.2709 1775.5953 12.2500 108.2299 12.1918 0.0000    6.7184    7.0475    7.2140    7.1521    6.9376  0.0239  2.1246  2.3745  92.6131 32.2775 171.1156 175.6358
    8520.7500 5163.5996 3251.9233 1262.1945 1775.5953 12.2500 108.9323 12.1848 0.0000    6.6884    6.9864    7.1447    7.0833    6.8702  0.0242  2.0805  2.3701  92.5980 30.8348 168.3822 172.7039
    8521.0000 5165.3833 3251.7209 1262.1183 1776.5752 12.2500 109.1677 12.1844 0.0000    6.6740    6.9405    7.0918    7.0309    6.8186  0.0243  2.0839  2.3728  92.5980 32.0081 168.3822 172.7039
    8521.2500 5167.1206 3251.5186 1262.0421 1776.5752 12.2500 108.8028 12.1852 0.0000    6.6967    6.9352    7.0817    7.0213    6.8084  0.0269  2.1065  2.3795  91.9345 31.7752 165.3469 169.5970
    8521.5000 5168.2163 3251.3162 1261.9659 1777.4352 12.2500 108.0063 12.2002 0.0000    6.7692    6.9869    7.1317    7.0714    6.8558  0.0304  2.1354  2.3894  91.9345 32.8688 165.3469 169.5970
    8521.7500 5167.9561 3251.1133 1261.8893 1777.4352 12.2500 107.9278 12.2056 0.0000    6.8861    7.0933    7.2399    7.1793    6.9588  0.0346  2.1716  2.4052  90.6019 34.3826 163.9866 167.9971
    8522.0000 5167.5938 3250.9102 1261.8125 1779.1547 12.2500 109.0853 12.2189 0.0000    7.0325    7.2423    7.3940    7.3328    7.1058  0.0388  2.2162  2.4243  90.6019 34.1373 163.9866 167.9971
    8522.2500 5167.8618 3250.7065 1261.7352 1778.6549 12.2500 111.5220 12.2409 0.0000    7.1980    7.4254    7.5856    7.5236    7.2888  0.0418  2.2651  2.4446  90.6019 34.9535 163.9866 167.9971
    8522.5000 5168.2642 3250.5022 1261.6572 1778.6549 12.2500 114.3864 12.2320 0.0000    7.3710    7.6309    7.8024    7.7392    7.4960  0.0438  2.3084  2.4649  89.7066 34.4453 164.6031 168.2664
    8522.7500 5168.6909 3250.2981 1261.5796 1777.9954 12.2500 116.5445 12.2320 0.0000    7.5127    7.8157    7.9998    7.9354    7.6849  0.0456  2.3569  2.4814  89.7066 33.7103 164.6031 168.2664
    8523.0000 5169.9458 3250.0940 1261.5020 1777.9954 12.2500 116.5994 12.2396 0.0000    7.5581    7.9053    8.1004    8.0353    7.7814  0.0474  2.3983  2.4903  89.8454 31.7780 167.0536 169.9755
    8523.2500 5171.1450 3249.8896 1261.4240 1778.5349 12.2500 116.1089 12.2325 0.0000    7.4614    7.8424    8.0439    7.9788    7.7276  0.0480  2.4437  2.4859  90.7909 31.1472 169.8648 171.9680
    8523.5000 5171.5874 3249.6855 1261.3462 1778.5349 12.2500 113.5506 12.2137 0.0000    7.2398    7.6365    7.8386    7.7743    7.5316  0.0477  2.4803  2.4636  90.7909 31.4859 169.8648 171.9680
    8523.7500 5171.2559 3249.4822 1261.2692 1779.7350 12.2500 111.7261 12.2005 0.0000    6.9667    7.3611    7.5592    7.4958    7.2645  0.0461  2.4650  2.4268  90.7909 32.2928 169.8648 171.9680
